[2018-05-11 03:50:38] $GPGGA,054808.000,3540.0135,N,13947.5385,E,1,10,0.8,18.3,M,39.4,M,,0000*66
[2018-05-11 03:50:38] $GPGSA,A,3,08,27,18,07,11,16,01,10,30,26,,,1.8,0.8,1.6*37
[2018-05-11 03:50:38] $GPRMC,054808.000,A,3540.0135,N,13947.5385,E,0.00,172.30,140518,,,A*67
[2018-05-11 03:50:38] $GPGGA,054809.000,3540.0135,N,13947.5385,E,1,10,0.8,18.3,M,39.4,M,,0000*67
[2018-05-11 03:50:38] $GPGSA,A,3,08,27,18,07,11,16,01,10,30,26,,,1.8,0.8,1.6*37
[2018-05-11 03:50:38] $GPRMC,054809.000,A,3540.0135,N,13947.5385,E,0.00,172.30,140518,,,A*66
[2018-05-11 03:50:38] $GPGGA,054810.000,3540.0135,N,13947.5385,E,1,10,0.8,18.3,M,39.4,M,,0000*6F
[2018-05-11 03:50:38] $GPGSA,A,3,08,27,18,07,11,16,01,10,30,26,,,1.8,0.8,1.6*37
[2018-05-11 03:50:38] $GPRMC,054810.000,A,3540.0135,N,13947.5385,E,0.00,172.30,140518,,,A*6E
[2018-05-11 03:50:38] $GPGGA,054811.000,3540.0135,N,13947.5385,E,1,10,0.8,18.3,M,39.4,M,,0000*6E
[2018-05-11 03:50:38] $GPGSA,A,3,08,27,18,07,11,16,01,10,30,26,,,1.8,0.8,1.6*37
[2018-05-11 03:50:38] $GPGSV,3,1,12,08,64,318,45,27,50,040,46,18,50,199,46,07,39,296,47*73
[2018-05-11 03:50:38] $GPGSV,3,2,12,11,39,231,42,16,39,105,28,01,26,205,42,10,18,079,23*77
[2018-05-11 03:50:38] $GPGSV,3,3,12,30,18,315,40,26,14,119,25,22,01,173,,20,01,036,*7E
[2018-05-11 03:50:38] $GPRMC,054811.000,A,3540.0135,N,13947.5385,E,0.00,172.30,140518,,,A*6F
[2018-05-11 03:50:38] $GPGGA,054812.000,3540.0135,N,13947.5385,E,1,10,0.8,18.3,M,39.4,M,,0000*6D
[2018-05-11 03:50:38] $GPGSA,A,3,08,27,18,07,11,16,01,10,30,26,,,1.8,0.8,1.6*37
[2018-05-11 03:50:38] $GPRMC,054812.000,A,3540.0135,N,13947.5385,E,0.00,172.30,140518,,,A*6C
[2018-05-11 03:50:38] $GPGGA,054813.000,3540.0135,N,13947.5385,E,1,10,0.8,18.3,M,39.4,M,,0000*6C
[2018-05-11 03:50:38] $GPGSA,A,3,08,27,18,07,11,16,01,10,30,26,,,1.8,0.8,1.6*37
[2018-05-11 03:50:38] $GPRMC,054813.000,A,3540.0135,N,13947.5385,E,0.00,172.30,140518,,,A*6D
[2018-05-11 03:50:38] $GPGGA,054814.000,3540.0135,N,13947.5385,E,1,10,0.8,18.3,M,39.4,M,,0000*6B
[2018-05-11 03:50:38] $GPGSA,A,3,08,27,18,07,11,16,01,10,30,26,,,1.8,0.8,1.6*37
[2018-05-11 03:50:38] $GPRMC,054814.000,A,3540.0135,N,13947.5385,E,0.00,172.30,140518,,,A*6A
[2018-05-11 03:50:38] $GPGGA,054815.000,3540.0135,N,13947.5385,E,1,10,0.8,18.3,M,39.4,M,,0000*6A
[2018-05-11 03:50:38] $GPGSA,A,3,08,27,18,07,11,16,01,10,30,26,,,1.8,0.8,1.6*37
[2018-05-11 03:50:38] $GPRMC,054815.000,A,3540.0135,N,13947.5385,E,0.00,172.30,140518,,,A*6B
[2018-05-11 03:50:38] $GPGGA,054816.000,3540.0135,N,13947.5385,E,1,10,0.8,18.3,M,39.4,M,,0000*69
[2018-05-11 03:50:38] $GPGSA,A,3,08,27,18,07,11,16,01,10,30,26,,,1.8,0.8,1.6*37
[2018-05-11 03:50:39] $GPGSV,3,1,12,08,64,319,44,27,50,040,45,18,50,199,46,07,39,296,46*71
[2018-05-11 03:50:39] $GPGSV,3,2,12,11,39,231,42,16,39,105,28,01,26,205,41,10,18,079,23*74
[2018-05-11 03:50:39] $GPGSV,3,3,12,30,18,315,39,26,14,119,26,22,01,173,,20,01,036,*73
[2018-05-11 03:50:39] $GPRMC,054816.000,A,3540.0135,N,13947.5385,E,0.00,172.30,140518,,,A*68
[2018-05-11 03:50:39] $GPGGA,054817.000,3540.0135,N,13947.5385,E,1,10,0.8,18.3,M,39.4,M,,0000*68
[2018-05-11 03:50:39] $GPGSA,A,3,08,27,18,07,11,16,01,10,30,26,,,1.8,0.8,1.6*37
[2018-05-11 03:50:40] $GPRMC,054817.000,A,3540.0135,N,13947.5385,E,0.00,172.30,140518,,,A*69
[2018-05-11 03:50:40] $GPGGA,054818.000,3540.0135,N,13947.5385,E,1,10,0.8,18.3,M,39.4,M,,0000*67
[2018-05-11 03:50:40] $GPGSA,A,3,08,27,18,07,11,16,01,10,30,26,,,1.8,0.8,1.6*37
[2018-05-11 03:50:41] $GPRMC,054818.000,A,3540.0135,N,13947.5385,E,0.00,172.30,140518,,,A*66
[2018-05-11 03:50:41] $GPGGA,054819.000,3540.0135,N,13947.5385,E,1,10,0.8,18.3,M,39.4,M,,0000*66
[2018-05-11 03:50:41] $GPGSA,A,3,08,27,18,07,11,16,01,10,30,26,,,1.8,0.8,1.6*37
[2018-05-11 03:50:42] $GPRMC,054819.000,A,3540.0135,N,13947.5385,E,0.00,172.30,140518,,,A*67
[2018-05-11 03:50:42] $GPGGA,054820.000,3540.0135,N,13947.5385,E,1,10,0.8,18.3,M,39.4,M,,0000*6C
[2018-05-11 03:50:42] $GPGSA,A,3,08,27,18,07,11,16,01,10,30,26,,,1.8,0.8,1.6*37
[2018-05-11 03:50:43] $GPRMC,054820.000,A,3540.0135,N,13947.5385,E,0.00,172.30,140518,,,A*6D
[2018-05-11 03:50:43] $GPGGA,054821.000,3540.0135,N,13947.5385,E,1,10,0.8,18.3,M,39.4,M,,0000*6D
[2018-05-11 03:50:43] $GPGSA,A,3,08,27,18,07,11,16,01,10,30,26,,,1.8,0.8,1.6*37
[2018-05-11 03:50:44] $GPGSV,3,1,12,08,64,319,45,27,50,040,45,18,50,199,45,07,39,296,46*73
[2018-05-11 03:50:44] $GPGSV,3,2,12,11,39,231,42,16,39,105,34,01,26,205,41,10,18,079,18*71
[2018-05-11 03:50:44] $GPGSV,3,3,12,30,18,315,39,26,14,119,26,22,01,173,,20,01,036,*73
[2018-05-11 03:50:44] $GPRMC,054821.000,A,3540.0135,N,13947.5385,E,0.00,172.30,140518,,,A*6C
[2018-05-11 03:50:44] $GPGGA,054822.000,3540.0135,N,13947.5385,E,1,10,0.8,18.3,M,39.4,M,,0000*6E
[2018-05-11 03:50:44] $GPGSA,A,3,08,27,18,07,11,16,01,10,30,26,,,1.8,0.8,1.6*37
[2018-05-11 03:50:45] $GPRMC,054822.000,A,3540.0135,N,13947.5385,E,0.00,172.30,140518,,,A*6F
[2018-05-11 03:50:45] $GPGGA,054823.000,3540.0135,N,13947.5385,E,1,10,0.8,18.3,M,39.4,M,,0000*6F
[2018-05-11 03:50:45] $GPGSA,A,3,08,27,18,07,11,16,01,10,30,26,,,1.8,0.8,1.6*37
[2018-05-11 03:50:46] $GPRMC,054823.000,A,3540.0135,N,13947.5385,E,0.00,172.30,140518,,,A*6E
[2018-05-11 03:50:46] $GPGGA,054824.000,3540.0135,N,13947.5385,E,1,10,0.8,18.3,M,39.4,M,,0000*68
[2018-05-11 03:50:46] $GPGSA,A,3,08,27,18,07,11,16,01,10,30,26,,,1.8,0.8,1.6*37
[2018-05-11 03:50:47] $GPRMC,054824.000,A,3540.0135,N,13947.5385,E,0.00,172.30,140518,,,A*69
[2018-05-11 03:50:47] $GPGGA,054825.000,3540.0135,N,13947.5385,E,1,10,0.8,18.3,M,39.4,M,,0000*69
[2018-05-11 03:50:47] $GPGSA,A,3,08,27,18,07,11,16,01,10,30,26,,,1.8,0.8,1.6*37
[2018-05-11 03:50:48] $GPRMC,054825.000,A,3540.0135,N,13947.5385,E,0.00,172.30,140518,,,A*68
[2018-05-11 03:50:48] $GPGGA,054826.000,3540.0135,N,13947.5385,E,1,10,0.8,18.3,M,39.4,M,,0000*6A
[2018-05-11 03:50:48] $GPGSA,A,3,08,27,18,07,11,16,01,10,30,26,,,1.8,0.8,1.6*37
[2018-05-11 03:50:49] $GPGSV,3,1,12,08,64,319,45,27,50,040,45,18,50,199,45,07,39,296,46*73
[2018-05-11 03:50:49] $GPGSV,3,2,12,11,39,231,42,16,39,105,21,01,26,205,42,10,18,079,21*7C
[2018-05-11 03:50:49] $GPGSV,3,3,12,30,18,315,39,26,14,119,25,22,01,173,,20,01,036,*70
[2018-05-11 03:50:49] $GPRMC,054826.000,A,3540.0135,N,13947.5385,E,0.00,172.30,140518,,,A*6B
[2018-05-11 03:50:49] $GPGGA,054827.000,3540.0135,N,13947.5385,E,1,10,0.8,18.3,M,39.4,M,,0000*6B
[2018-05-11 03:50:49] $GPGSA,A,3,08,27,18,07,11,16,01,10,30,26,,,1.8,0.8,1.6*37
[2018-05-11 03:50:50] $GPRMC,054827.000,A,3540.0135,N,13947.5385,E,0.00,172.30,140518,,,A*6A
[2018-05-11 03:50:50] $GPGGA,054828.000,3540.0135,N,13947.5385,E,1,10,0.8,18.3,M,39.4,M,,0000*64
[2018-05-11 03:50:50] $GPGSA,A,3,08,27,18,07,11,16,01,10,30,26,,,1.8,0.8,1.6*37
[2018-05-11 03:50:51] $GPRMC,054828.000,A,3540.0135,N,13947.5385,E,0.00,172.30,140518,,,A*65
[2018-05-11 03:50:51] $GPGGA,054829.000,3540.0135,N,13947.5385,E,1,10,0.8,18.3,M,39.4,M,,0000*65
[2018-05-11 03:50:51] $GPGSA,A,3,08,27,18,07,11,16,01,10,30,26,,,1.8,0.8,1.6*37
[2018-05-11 03:50:52] $GPRMC,054829.000,A,3540.0135,N,13947.5385,E,0.00,172.30,140518,,,A*64
[2018-05-11 03:50:52] $GPGGA,054830.000,3540.0135,N,13947.5385,E,1,10,0.8,18.3,M,39.4,M,,0000*6D
[2018-05-11 03:50:52] $GPGSA,A,3,08,27,18,07,11,16,01,10,30,26,,,1.8,0.8,1.6*37
[2018-05-11 03:50:53] $GPRMC,054830.000,A,3540.0135,N,13947.5385,E,0.00,172.30,140518,,,A*6C
[2018-05-11 03:50:53] $GPGGA,054831.000,3540.0135,N,13947.5385,E,1,10,0.8,18.3,M,39.4,M,,0000*6C
[2018-05-11 03:50:53] $GPGSA,A,3,08,27,18,07,11,16,01,10,30,26,,,1.8,0.8,1.6*37
[2018-05-11 03:50:54] $GPGSV,3,1,12,08,64,319,45,27,50,040,46,18,50,199,45,07,39,296,46*70
[2018-05-11 03:50:54] $GPGSV,3,2,12,11,39,231,41,16,39,105,36,01,26,205,31,10,18,079,30*7D
[2018-05-11 03:50:54] $GPGSV,3,3,12,30,18,315,39,26,14,119,23,22,01,173,,20,01,036,*76
[2018-05-11 03:50:54] $GPRMC,054831.000,A,3540.0135,N,13947.5385,E,0.00,172.30,140518,,,A*6D
[2018-05-11 03:50:54] $GPGGA,054832.000,3540.0135,N,13947.5385,E,1,10,0.8,18.3,M,39.4,M,,0000*6F
[2018-05-11 03:50:54] $GPGSA,A,3,08,27,18,07,11,16,01,10,30,26,,,1.8,0.8,1.6*37
[2018-05-11 03:50:55] $GPRMC,054832.000,A,3540.0135,N,13947.5385,E,0.00,172.30,140518,,,A*6E
[2018-05-11 03:50:55] $GPGGA,054833.000,3540.0135,N,13947.5385,E,1,10,0.8,18.3,M,39.4,M,,0000*6E
[2018-05-11 03:50:55] $GPGSA,A,3,08,27,18,07,11,16,01,10,30,26,,,1.8,0.8,1.6*37
[2018-05-11 03:50:56] $GPRMC,054833.000,A,3540.0135,N,13947.5385,E,0.00,172.30,140518,,,A*6F
[2018-05-11 03:50:56] $GPGGA,054834.000,3540.0135,N,13947.5385,E,1,10,0.8,18.3,M,39.4,M,,0000*69
[2018-05-11 03:50:56] $GPGSA,A,3,08,27,18,07,11,16,01,10,30,26,,,1.8,0.8,1.6*37
[2018-05-11 03:50:57] $GPRMC,054834.000,A,3540.0135,N,13947.5385,E,0.00,172.30,140518,,,A*68
[2018-05-11 03:50:57] $GPGGA,054835.000,3540.0135,N,13947.5385,E,1,10,0.8,18.3,M,39.4,M,,0000*68
[2018-05-11 03:50:57] $GPGSA,A,3,08,27,18,07,11,16,01,10,30,26,,,1.8,0.8,1.6*37
[2018-05-11 03:50:58] $GPRMC,054835.000,A,3540.0135,N,13947.5385,E,0.00,172.30,140518,,,A*69
[2018-05-11 03:50:58] $GPGGA,054836.000,3540.0135,N,13947.5385,E,1,10,0.8,18.3,M,39.4,M,,0000*6B
[2018-05-11 03:50:58] $GPGSA,A,3,08,27,18,07,11,16,01,10,30,26,,,1.8,0.8,1.6*37
[2018-05-11 03:50:59] $GPGSV,3,1,12,08,64,319,44,27,50,040,47,18,50,199,42,07,39,296,46*77
[2018-05-11 03:50:59] $GPGSV,3,2,12,11,39,231,40,16,39,105,41,01,26,205,32,10,18,079,30*7F
[2018-05-11 03:50:59] $GPGSV,3,3,12,30,18,315,40,26,14,119,29,20,01,036,04,22,01,173,*76
[2018-05-11 03:50:59] $GPRMC,054836.000,A,3540.0135,N,13947.5385,E,0.00,172.30,140518,,,A*6A
[2018-05-11 03:50:59] $GPGGA,054837.000,3540.0135,N,13947.5385,E,1,10,0.8,18.3,M,39.4,M,,0000*6A
[2018-05-11 03:50:59] $GPGSA,A,3,08,27,18,07,11,16,01,10,30,26,,,1.8,0.8,1.6*37
[2018-05-11 03:51:00] $GPRMC,054837.000,A,3540.0135,N,13947.5385,E,0.00,172.30,140518,,,A*6B
[2018-05-11 03:51:00] $GPGGA,054838.000,3540.0135,N,13947.5385,E,1,10,0.8,18.3,M,39.4,M,,0000*65
[2018-05-11 03:51:00] $GPGSA,A,3,08,18,27,07,11,16,01,10,30,26,,,1.8,0.8,1.6*37
[2018-05-11 03:51:01] $GPRMC,054838.000,A,3540.0135,N,13947.5385,E,0.00,172.30,140518,,,A*64
[2018-05-11 03:51:01] $GPGGA,054839.000,3540.0135,N,13947.5385,E,1,10,0.8,18.3,M,39.4,M,,0000*64
[2018-05-11 03:51:01] $GPGSA,A,3,08,18,27,07,11,16,01,10,30,26,,,1.8,0.8,1.6*37
[2018-05-11 03:51:02] $GPRMC,054839.000,A,3540.0135,N,13947.5385,E,0.00,172.30,140518,,,A*65
[2018-05-11 03:51:02] $GPGGA,054840.000,3540.0135,N,13947.5385,E,1,10,0.8,18.3,M,39.4,M,,0000*6A
[2018-05-11 03:51:02] $GPGSA,A,3,08,18,27,07,11,16,01,10,30,26,,,1.8,0.8,1.6*37
[2018-05-11 03:51:03] $GPRMC,054840.000,A,3540.0135,N,13947.5385,E,0.00,172.30,140518,,,A*6B
[2018-05-11 03:51:03] $GPGGA,054841.000,3540.0135,N,13947.5385,E,1,10,0.8,18.3,M,39.4,M,,0000*6B
[2018-05-11 03:51:03] $GPGSA,A,3,08,18,27,07,11,16,01,10,30,26,,,1.8,0.8,1.6*37
[2018-05-11 03:51:04] $GPGSV,3,1,12,08,64,319,44,18,50,199,42,27,50,040,47,07,40,295,46*7A
[2018-05-11 03:51:04] $GPGSV,3,2,12,11,39,231,41,16,39,105,42,01,26,205,33,10,19,079,30*7D
[2018-05-11 03:51:04] $GPGSV,3,3,12,30,18,315,40,26,13,119,29,22,01,173,,20,01,036,*75
[2018-05-11 03:51:04] $GPRMC,054841.000,A,3540.0135,N,13947.5385,E,0.00,172.30,140518,,,A*6A
[2018-05-11 03:51:04] $GPGGA,054842.000,3540.0135,N,13947.5385,E,1,10,0.8,18.4,M,39.4,M,,0000*6F
[2018-05-11 03:51:04] $GPGSA,A,3,08,18,27,07,11,16,01,10,30,26,,,1.8,0.8,1.6*37
[2018-05-11 03:51:05] $GPRMC,054842.000,A,3540.0135,N,13947.5385,E,0.00,172.30,140518,,,A*69
[2018-05-11 03:51:05] $GPGGA,054843.000,3540.0135,N,13947.5385,E,1,10,0.8,18.4,M,39.4,M,,0000*6E
[2018-05-11 03:51:06] $GPGSA,A,3,08,18,27,07,11,16,01,10,30,26,,,1.8,0.8,1.6*37
[2018-05-11 03:51:06] $GPRMC,054843.000,A,3540.0135,N,13947.5385,E,0.00,172.30,140518,,,A*68
[2018-05-11 03:51:06] $GPGGA,054844.000,3540.0135,N,13947.5385,E,1,10,0.8,18.4,M,39.4,M,,0000*69
[2018-05-11 03:51:06] $GPGSA,A,3,08,18,27,07,11,16,01,10,30,26,,,1.8,0.8,1.6*37
[2018-05-11 03:51:07] $GPRMC,054844.000,A,3540.0135,N,13947.5385,E,0.00,172.30,140518,,,A*6F
[2018-05-11 03:51:07] $GPGGA,054845.000,3540.0135,N,13947.5385,E,1,10,0.8,18.4,M,39.4,M,,0000*68
[2018-05-11 03:51:07] $GPGSA,A,3,08,18,27,07,11,16,01,10,30,26,,,1.8,0.8,1.6*37
[2018-05-11 03:51:08] $GPRMC,054845.000,A,3540.0135,N,13947.5385,E,0.00,172.30,140518,,,A*6E
[2018-05-11 03:51:08] $GPGGA,054846.000,3540.0135,N,13947.5385,E,1,10,0.8,18.4,M,39.4,M,,0000*6B
[2018-05-11 03:51:08] $GPGSA,A,3,08,18,27,07,11,16,01,10,30,26,,,1.8,0.8,1.6*37
[2018-05-11 03:51:09] $GPGSV,3,1,12,08,64,319,45,18,50,199,42,27,50,040,47,07,40,295,46*7B
[2018-05-11 03:51:09] $GPGSV,3,2,12,11,39,231,41,16,39,105,41,01,26,205,33,10,19,079,30*7E
[2018-05-11 03:51:09] $GPGSV,3,3,12,30,18,315,40,26,13,119,30,22,01,173,,20,01,036,*7D
[2018-05-11 03:51:09] $GPRMC,054846.000,A,3540.0135,N,13947.5385,E,0.00,172.30,140518,,,A*6D
[2018-05-11 03:51:09] $GPGGA,054847.000,3540.0135,N,13947.5385,E,1,10,0.8,18.4,M,39.4,M,,0000*6A
[2018-05-11 03:51:09] $GPGSA,A,3,08,18,27,07,11,16,01,10,30,26,,,1.8,0.8,1.6*37
[2018-05-11 03:51:10] $GPRMC,054847.000,A,3540.0135,N,13947.5385,E,0.00,172.30,140518,,,A*6C
[2018-05-11 03:51:10] $GPGGA,054848.000,3540.0135,N,13947.5385,E,1,10,0.8,18.4,M,39.4,M,,0000*65
[2018-05-11 03:51:10] $GPGSA,A,3,08,18,27,07,11,16,01,10,30,26,,,1.8,0.8,1.6*37
[2018-05-11 03:51:11] $GPRMC,054848.000,A,3540.0135,N,13947.5385,E,0.00,172.30,140518,,,A*63
[2018-05-11 03:51:11] $GPGGA,054849.000,3540.0135,N,13947.5385,E,1,10,0.8,18.4,M,39.4,M,,0000*64
[2018-05-11 03:51:11] $GPGSA,A,3,08,18,27,07,11,16,01,10,30,26,,,1.8,0.8,1.6*37
[2018-05-11 03:51:12] $GPRMC,054849.000,A,3540.0135,N,13947.5385,E,0.00,172.30,140518,,,A*62
[2018-05-11 03:51:12] $GPGGA,054850.000,3540.0135,N,13947.5385,E,1,10,0.8,18.4,M,39.4,M,,0000*6C
[2018-05-11 03:51:12] $GPGSA,A,3,08,18,27,07,11,16,01,10,30,26,,,1.8,0.8,1.6*37
[2018-05-11 03:51:13] $GPRMC,054850.000,A,3540.0135,N,13947.5385,E,0.00,172.30,140518,,,A*6A
[2018-05-11 03:51:13] $GPGGA,054851.000,3540.0135,N,13947.5385,E,1,10,0.8,18.4,M,39.4,M,,0000*6D
[2018-05-11 03:51:13] $GPGSA,A,3,08,18,27,07,11,16,01,10,30,26,,,1.8,0.8,1.6*37
[2018-05-11 03:51:14] $GPGSV,3,1,12,08,64,319,44,18,50,199,42,27,50,040,47,07,40,295,46*7A
[2018-05-11 03:51:14] $GPGSV,3,2,12,11,39,231,41,16,39,105,42,01,26,205,33,10,19,079,30*7D
[2018-05-11 03:51:14] $GPGSV,3,3,12,30,18,315,40,26,13,119,29,22,01,173,,20,01,036,*75
[2018-05-11 03:51:14] $GPRMC,054851.000,A,3540.0135,N,13947.5385,E,0.00,172.30,140518,,,A*6B
[2018-05-11 03:51:14] $GPGGA,054852.000,3540.0135,N,13947.5385,E,1,10,0.8,18.4,M,39.4,M,,0000*6E
[2018-05-11 03:51:14] $GPGSA,A,3,08,18,27,07,11,16,01,10,30,26,,,1.8,0.8,1.6*37
[2018-05-11 03:51:15] $GPRMC,054852.000,A,3540.0135,N,13947.5385,E,0.00,172.30,140518,,,A*68
[2018-05-11 03:51:15] $GPGGA,054853.000,3540.0135,N,13947.5385,E,1,10,0.8,18.4,M,39.4,M,,0000*6F
[2018-05-11 03:51:15] $GPGSA,A,3,08,18,27,07,11,16,01,10,30,26,,,1.8,0.8,1.6*37
[2018-05-11 03:51:16] $GPRMC,054853.000,A,3540.0135,N,13947.5385,E,0.00,172.30,140518,,,A*69
[2018-05-11 03:51:16] $GPGGA,054854.000,3540.0135,N,13947.5385,E,1,10,0.8,18.4,M,39.4,M,,0000*68
[2018-05-11 03:51:16] $GPGSA,A,3,08,18,27,07,11,16,01,10,30,26,,,1.8,0.8,1.6*37
[2018-05-11 03:51:17] $GPRMC,054854.000,A,3540.0135,N,13947.5385,E,0.00,172.30,140518,,,A*6E
[2018-05-11 03:51:17] $GPGGA,054855.000,3540.0135,N,13947.5385,E,1,10,0.8,18.4,M,39.4,M,,0000*69
[2018-05-11 03:51:17] $GPGSA,A,3,08,18,27,07,11,16,01,10,30,26,,,1.8,0.8,1.6*37
[2018-05-11 03:51:18] $GPRMC,054855.000,A,3540.0135,N,13947.5385,E,0.00,172.30,140518,,,A*6F
[2018-05-11 03:51:18] $GPGGA,054856.000,3540.0135,N,13947.5385,E,1,10,0.8,18.4,M,39.4,M,,0000*6A
[2018-05-11 03:51:18] $GPGSA,A,3,08,18,27,07,11,16,01,10,30,26,,,1.8,0.8,1.6*37
[2018-05-11 03:51:19] $GPGSV,3,1,12,08,64,319,45,18,50,199,42,27,50,040,47,07,40,295,46*7B
[2018-05-11 03:51:19] $GPGSV,3,2,12,11,39,231,41,16,39,105,42,01,26,205,33,10,19,079,30*7D
[2018-05-11 03:51:19] $GPGSV,3,3,12,30,18,315,40,26,13,119,30,22,01,173,,20,01,036,*7D
[2018-05-11 03:51:19] $GPRMC,054856.000,A,3540.0135,N,13947.5385,E,0.00,172.30,140518,,,A*6C
[2018-05-11 03:51:19] $GPGGA,054857.000,3540.0135,N,13947.5385,E,1,10,0.8,18.4,M,39.4,M,,0000*6B
[2018-05-11 03:51:19] $GPGSA,A,3,08,18,27,07,11,16,01,10,30,26,,,1.8,0.8,1.6*37
[2018-05-11 03:51:20] $GPRMC,054857.000,A,3540.0135,N,13947.5385,E,0.00,172.30,140518,,,A*6D
[2018-05-11 03:51:20] $GPGGA,054858.000,3540.0135,N,13947.5385,E,1,10,0.8,18.4,M,39.4,M,,0000*64
[2018-05-11 03:51:20] $GPGSA,A,3,08,18,27,07,11,16,01,10,30,26,,,1.8,0.8,1.6*37
[2018-05-11 03:51:21] $GPRMC,054858.000,A,3540.0135,N,13947.5385,E,0.00,172.30,140518,,,A*62
[2018-05-11 03:51:21] $GPGGA,054859.000,3540.0135,N,13947.5385,E,1,10,0.8,18.4,M,39.4,M,,0000*65
[2018-05-11 03:51:21] $GPGSA,A,3,08,18,27,07,11,16,01,10,30,26,,,1.8,0.8,1.6*37
[2018-05-11 03:51:22] $GPRMC,054859.000,A,3540.0135,N,13947.5385,E,0.00,172.30,140518,,,A*63
[2018-05-11 03:51:22] $GPGGA,054900.000,3540.0135,N,13947.5385,E,1,10,0.8,18.4,M,39.4,M,,0000*68
[2018-05-11 03:51:22] $GPGSA,A,3,08,18,27,07,11,16,01,10,30,26,,,1.8,0.8,1.6*37
[2018-05-11 03:51:23] $GPRMC,054900.000,A,3540.0135,N,13947.5385,E,0.00,172.30,140518,,,A*6E
[2018-05-11 03:51:23] $GPGGA,054901.000,3540.0135,N,13947.5385,E,1,10,0.8,18.4,M,39.4,M,,0000*69
[2018-05-11 03:51:23] $GPGSA,A,3,08,18,27,07,11,16,01,10,30,26,,,1.8,0.8,1.6*37
[2018-05-11 03:51:24] $GPGSV,3,1,12,08,64,319,45,18,50,199,42,27,50,040,47,07,40,295,46*7B
[2018-05-11 03:51:24] $GPGSV,3,2,12,11,39,231,41,16,39,105,43,01,26,205,33,10,19,079,30*7C
[2018-05-11 03:51:24] $GPGSV,3,3,12,30,18,315,40,26,13,119,30,22,01,173,,20,01,036,*7D
[2018-05-11 03:51:24] $GPRMC,054901.000,A,3540.0135,N,13947.5385,E,0.00,172.30,140518,,,A*6F
[2018-05-11 03:51:24] $GPGGA,054902.000,3540.0135,N,13947.5385,E,1,10,0.8,18.4,M,39.4,M,,0000*6A
[2018-05-11 03:51:24] $GPGSA,A,3,08,18,27,07,11,16,01,10,30,26,,,1.8,0.8,1.6*37
[2018-05-11 03:51:25] $GPRMC,054902.000,A,3540.0135,N,13947.5385,E,0.00,172.30,140518,,,A*6C
[2018-05-11 03:51:25] $GPGGA,054903.000,3540.0135,N,13947.5385,E,1,10,0.8,18.4,M,39.4,M,,0000*6B
[2018-05-11 03:51:25] $GPGSA,A,3,08,18,27,07,11,16,01,10,30,26,,,1.8,0.8,1.6*37
[2018-05-11 03:51:26] $GPRMC,054903.000,A,3540.0135,N,13947.5385,E,0.00,172.30,140518,,,A*6D
[2018-05-11 03:51:26] $GPGGA,054904.000,3540.0135,N,13947.5385,E,1,10,0.8,18.4,M,39.4,M,,0000*6C
[2018-05-11 03:51:26] $GPGSA,A,3,08,18,27,07,11,16,01,10,30,26,,,1.8,0.8,1.6*37
[2018-05-11 03:51:27] $GPRMC,054904.000,A,3540.0135,N,13947.5385,E,0.00,172.30,140518,,,A*6A
[2018-05-11 03:51:27] $GPGGA,054905.000,3540.0135,N,13947.5385,E,1,10,0.8,18.4,M,39.4,M,,0000*6D
[2018-05-11 03:51:27] $GPGSA,A,3,08,18,27,07,11,16,01,10,30,26,,,1.8,0.8,1.6*37
[2018-05-11 03:51:28] $GPRMC,054905.000,A,3540.0135,N,13947.5385,E,0.00,172.30,140518,,,A*6B
[2018-05-11 03:51:28] $GPGGA,054906.000,3540.0135,N,13947.5385,E,1,10,0.8,18.4,M,39.4,M,,0000*6E
[2018-05-11 03:51:28] $GPGSA,A,3,08,18,27,07,11,16,01,10,30,26,,,1.8,0.8,1.6*37
[2018-05-11 03:51:29] $GPGSV,3,1,12,08,64,319,44,18,50,199,42,27,50,040,47,07,40,295,45*79
[2018-05-11 03:51:29] $GPGSV,3,2,12,11,39,231,41,16,39,105,42,01,26,205,33,10,19,079,30*7D
[2018-05-11 03:51:29] $GPGSV,3,3,12,30,18,315,41,26,13,119,30,22,01,173,,20,01,036,*7C
[2018-05-11 03:51:29] $GPRMC,054906.000,A,3540.0135,N,13947.5385,E,0.00,172.30,140518,,,A*68
[2018-05-11 03:51:29] $GPGGA,054907.000,3540.0135,N,13947.5385,E,1,10,0.8,18.4,M,39.4,M,,0000*6F
[2018-05-11 03:51:29] $GPGSA,A,3,08,18,27,07,11,16,01,10,30,26,,,1.8,0.8,1.6*37
[2018-05-11 03:51:30] $GPRMC,054907.000,A,3540.0135,N,13947.5385,E,0.00,172.30,140518,,,A*69
[2018-05-11 03:51:30] $GPGGA,054908.000,3540.0135,N,13947.5385,E,1,10,0.8,18.4,M,39.4,M,,0000*60
[2018-05-11 03:51:30] $GPGSA,A,3,08,18,27,07,11,16,01,10,30,26,,,1.8,0.8,1.6*37
[2018-05-11 03:51:31] $GPRMC,054908.000,A,3540.0135,N,13947.5385,E,0.00,172.30,140518,,,A*66
[2018-05-11 03:51:31] $GPGGA,054909.000,3540.0135,N,13947.5385,E,1,10,0.8,18.4,M,39.4,M,,0000*61
[2018-05-11 03:51:31] $GPGSA,A,3,08,18,27,07,11,16,01,10,30,26,,,1.8,0.8,1.6*37
[2018-05-11 03:51:32] $GPRMC,054909.000,A,3540.0135,N,13947.5385,E,0.00,172.30,140518,,,A*67
[2018-05-11 03:51:32] $GPGGA,054910.000,3540.0135,N,13947.5385,E,1,10,0.8,18.4,M,39.4,M,,0000*69
[2018-05-11 03:51:32] $GPGSA,A,3,08,18,27,07,11,16,01,10,30,26,,,1.8,0.8,1.6*37
[2018-05-11 03:51:33] $GPRMC,054910.000,A,3540.0135,N,13947.5385,E,0.00,172.30,140518,,,A*6F
[2018-05-11 03:51:33] $GPGGA,054911.000,3540.0135,N,13947.5385,E,1,10,0.8,18.4,M,39.4,M,,0000*68
[2018-05-11 03:51:33] $GPGSA,A,3,08,18,27,07,11,16,01,10,30,26,,,1.8,0.8,1.6*37
[2018-05-11 03:51:34] $GPGSV,3,1,12,08,64,320,45,18,50,199,42,27,49,041,47,07,40,295,45*7B
[2018-05-11 03:51:34] $GPGSV,3,2,12,11,40,231,42,16,39,105,43,01,26,205,33,10,19,079,30*71
[2018-05-11 03:51:34] $GPGSV,3,3,12,30,18,315,41,26,13,119,30,22,01,173,12,20,01,036,*7F
[2018-05-11 03:51:34] $GPRMC,054911.000,A,3540.0135,N,13947.5385,E,0.00,172.30,140518,,,A*6E
[2018-05-11 03:51:34] $GPGGA,054912.000,3540.0135,N,13947.5385,E,1,10,0.8,18.4,M,39.4,M,,0000*6B
[2018-05-11 03:51:34] $GPGSA,A,3,08,18,27,07,11,16,01,10,30,26,,,1.8,0.8,1.6*37
[2018-05-11 03:51:35] $GPRMC,054912.000,A,3540.0135,N,13947.5385,E,0.00,172.30,140518,,,A*6D
[2018-05-11 03:51:35] $GPGGA,054913.000,3540.0135,N,13947.5385,E,1,10,0.8,18.4,M,39.4,M,,0000*6A
[2018-05-11 03:51:35] $GPGSA,A,3,08,18,27,07,11,16,01,10,30,26,,,1.8,0.8,1.6*37
[2018-05-11 03:51:36] $GPRMC,054913.000,A,3540.0135,N,13947.5385,E,0.00,172.30,140518,,,A*6C
[2018-05-11 03:51:36] $GPGGA,054914.000,3540.0135,N,13947.5385,E,1,10,0.8,18.4,M,39.4,M,,0000*6D
[2018-05-11 03:51:36] $GPGSA,A,3,08,18,27,07,11,16,01,10,30,26,,,1.8,0.8,1.6*37
[2018-05-11 03:51:37] $GPRMC,054914.000,A,3540.0135,N,13947.5385,E,0.00,172.30,140518,,,A*6B
[2018-05-11 03:51:37] $GPGGA,054915.000,3540.0135,N,13947.5385,E,1,10,0.8,18.4,M,39.4,M,,0000*6C
[2018-05-11 03:51:37] $GPGSA,A,3,08,18,27,07,11,16,01,10,30,26,,,1.8,0.8,1.6*37
[2018-05-11 03:51:38] $GPRMC,054915.000,A,3540.0135,N,13947.5385,E,0.00,172.30,140518,,,A*6A
[2018-05-11 03:51:38] $GPGGA,054916.000,3540.0135,N,13947.5385,E,1,10,0.8,18.4,M,39.4,M,,0000*6F
[2018-05-11 03:51:38] $GPGSA,A,3,08,18,27,07,11,16,01,10,30,26,,,1.8,0.8,1.6*37
[2018-05-11 03:51:39] $GPGSV,3,1,12,08,64,320,45,18,50,199,42,27,49,041,47,07,40,295,45*7B
[2018-05-11 03:51:39] $GPGSV,3,2,12,11,40,231,42,16,39,105,42,01,26,205,33,10,19,079,30*70
[2018-05-11 03:51:39] $GPGSV,3,3,12,30,18,315,41,26,13,119,31,22,01,173,,20,01,036,*7D
[2018-05-11 03:51:39] $GPRMC,054916.000,A,3540.0135,N,13947.5385,E,0.00,172.30,140518,,,A*69
[2018-05-11 03:51:39] $GPGGA,054917.000,3540.0135,N,13947.5385,E,1,10,0.8,18.4,M,39.4,M,,0000*6E
[2018-05-11 03:51:39] $GPGSA,A,3,08,18,27,07,11,16,01,10,30,26,,,1.8,0.8,1.6*37
[2018-05-11 03:51:40] $GPRMC,054917.000,A,3540.0135,N,13947.5385,E,0.00,172.30,140518,,,A*68
[2018-05-11 03:51:40] $GPGGA,054918.000,3540.0135,N,13947.5385,E,1,10,0.8,18.4,M,39.4,M,,0000*61
[2018-05-11 03:51:40] $GPGSA,A,3,08,18,27,07,11,16,01,10,30,26,,,1.8,0.8,1.6*37
[2018-05-11 03:51:41] $GPRMC,054918.000,A,3540.0135,N,13947.5385,E,0.00,172.30,140518,,,A*67
[2018-05-11 03:51:41] $GPGGA,054919.000,3540.0135,N,13947.5385,E,1,10,0.8,18.4,M,39.4,M,,0000*60
[2018-05-11 03:51:41] $GPGSA,A,3,08,18,27,07,11,16,01,10,30,26,,,1.8,0.8,1.6*37
[2018-05-11 03:51:42] $GPRMC,054919.000,A,3540.0135,N,13947.5385,E,0.00,172.30,140518,,,A*66
[2018-05-11 03:51:42] $GPGGA,054920.000,3540.0135,N,13947.5385,E,1,10,0.8,18.4,M,39.4,M,,0000*6A
[2018-05-11 03:51:42] $GPGSA,A,3,08,18,27,07,11,16,01,10,30,26,,,1.8,0.8,1.6*37
[2018-05-11 03:51:43] $GPRMC,054920.000,A,3540.0135,N,13947.5385,E,0.00,172.30,140518,,,A*6C
[2018-05-11 03:51:43] $GPGGA,054921.000,3540.0135,N,13947.5385,E,1,10,0.8,18.4,M,39.4,M,,0000*6B
[2018-05-11 03:51:43] $GPGSA,A,3,08,18,27,07,11,16,01,10,30,26,,,1.8,0.8,1.6*37
[2018-05-11 03:51:44] $GPGSV,3,1,12,08,64,320,45,18,50,199,42,27,49,041,47,07,40,295,45*7B
[2018-05-11 03:51:44] $GPGSV,3,2,12,11,40,231,42,16,39,105,43,01,26,205,33,10,19,079,29*79
[2018-05-11 03:51:44] $GPGSV,3,3,12,30,18,315,41,26,13,119,31,22,01,173,,20,01,036,*7D
[2018-05-11 03:51:44] $GPRMC,054921.000,A,3540.0135,N,13947.5385,E,0.00,172.30,140518,,,A*6D
[2018-05-11 03:51:44] $GPGGA,054922.000,3540.0135,N,13947.5385,E,1,10,0.8,18.4,M,39.4,M,,0000*68
[2018-05-11 03:51:44] $GPGSA,A,3,08,18,27,07,11,16,01,10,30,26,,,1.8,0.8,1.6*37
[2018-05-11 03:51:45] $GPRMC,054922.000,A,3540.0135,N,13947.5385,E,0.00,172.30,140518,,,A*6E
[2018-05-11 03:51:45] $GPGGA,054923.000,3540.0135,N,13947.5385,E,1,10,0.8,18.4,M,39.4,M,,0000*69
[2018-05-11 03:51:45] $GPGSA,A,3,08,18,27,07,11,16,01,10,30,26,,,1.8,0.8,1.6*37
[2018-05-11 03:51:46] $GPRMC,054923.000,A,3540.0135,N,13947.5385,E,0.00,172.30,140518,,,A*6F
[2018-05-11 03:51:46] $GPGGA,054924.000,3540.0135,N,13947.5385,E,1,10,0.8,18.4,M,39.4,M,,0000*6E
[2018-05-11 03:51:46] $GPGSA,A,3,08,18,27,07,11,16,01,10,30,26,,,1.8,0.8,1.6*37
[2018-05-11 03:51:47] $GPRMC,054924.000,A,3540.0135,N,13947.5385,E,0.00,172.30,140518,,,A*68
[2018-05-11 03:51:47] $GPGGA,054925.000,3540.0135,N,13947.5385,E,1,10,0.8,18.4,M,39.4,M,,0000*6F
[2018-05-11 03:51:47] $GPGSA,A,3,08,18,27,07,11,16,01,10,30,26,,,1.8,0.8,1.6*37
[2018-05-11 03:51:48] $GPRMC,054925.000,A,3540.0135,N,13947.5385,E,0.00,172.30,140518,,,A*69
[2018-05-11 03:51:48] $GPGGA,054926.000,3540.0135,N,13947.5385,E,1,10,0.8,18.4,M,39.4,M,,0000*6C
[2018-05-11 03:51:48] $GPGSA,A,3,08,18,27,07,11,16,01,10,30,26,,,1.8,0.8,1.6*37
[2018-05-11 03:51:49] $GPGSV,3,1,12,08,64,320,45,18,50,199,42,27,49,041,47,07,40,295,45*7B
[2018-05-11 03:51:49] $GPGSV,3,2,12,11,40,231,43,16,39,105,43,01,26,205,33,10,19,079,29*78
[2018-05-11 03:51:49] $GPGSV,3,3,12,30,18,315,41,26,13,119,31,22,01,173,,20,01,036,*7D
[2018-05-11 03:51:49] $GPRMC,054926.000,A,3540.0135,N,13947.5385,E,0.00,172.30,140518,,,A*6A
[2018-05-11 03:51:49] $GPGGA,054927.000,3540.0135,N,13947.5385,E,1,10,0.8,18.4,M,39.4,M,,0000*6D
[2018-05-11 03:51:49] $GPGSA,A,3,08,18,27,07,11,16,01,10,30,26,,,1.8,0.8,1.6*37
[2018-05-11 03:51:50] $GPRMC,054927.000,A,3540.0135,N,13947.5385,E,0.00,172.30,140518,,,A*6B
[2018-05-11 03:51:50] $GPGGA,054928.000,3540.0135,N,13947.5385,E,1,10,0.8,18.4,M,39.4,M,,0000*62
[2018-05-11 03:51:50] $GPGSA,A,3,08,18,27,07,11,16,01,10,30,26,,,1.8,0.8,1.6*37
[2018-05-11 03:51:51] $GPRMC,054928.000,A,3540.0135,N,13947.5385,E,0.00,172.30,140518,,,A*64
[2018-05-11 03:51:51] $GPGGA,054929.000,3540.0135,N,13947.5385,E,1,10,0.8,18.4,M,39.4,M,,0000*63
[2018-05-11 03:51:51] $GPGSA,A,3,08,18,27,07,11,16,01,10,30,26,,,1.8,0.8,1.6*37
[2018-05-11 03:51:52] $GPRMC,054929.000,A,3540.0135,N,13947.5385,E,0.00,172.30,140518,,,A*65
[2018-05-11 03:51:52] $GPGGA,054930.000,3540.0135,N,13947.5385,E,1,10,0.8,18.4,M,39.4,M,,0000*6B
[2018-05-11 03:51:52] $GPGSA,A,3,08,18,27,07,11,16,01,10,30,26,,,1.8,0.8,1.6*37
[2018-05-11 03:51:53] $GPRMC,054930.000,A,3540.0135,N,13947.5385,E,0.00,172.30,140518,,,A*6D
[2018-05-11 03:51:53] $GPGGA,054931.000,3540.0135,N,13947.5385,E,1,10,0.8,18.4,M,39.4,M,,0000*6A
[2018-05-11 03:51:53] $GPGSA,A,3,08,18,27,07,11,16,01,10,30,26,,,1.8,0.8,1.6*37
[2018-05-11 03:51:54] $GPGSV,3,1,12,08,64,320,45,18,50,199,42,27,49,041,47,07,40,295,45*7B
[2018-05-11 03:51:54] $GPGSV,3,2,12,11,40,231,43,16,39,105,43,01,26,205,32,10,19,079,29*79
[2018-05-11 03:51:54] $GPGSV,3,3,12,30,18,315,41,26,13,119,31,20,01,036,15,22,01,173,*79
[2018-05-11 03:51:54] $GPRMC,054931.000,A,3540.0135,N,13947.5385,E,0.00,172.30,140518,,,A*6C
[2018-05-11 03:51:54] $GPGGA,054932.000,3540.0135,N,13947.5385,E,1,10,0.8,18.4,M,39.4,M,,0000*69
[2018-05-11 03:51:54] $GPGSA,A,3,08,18,27,07,11,16,01,10,30,26,,,1.8,0.8,1.6*37
[2018-05-11 03:51:55] $GPRMC,054932.000,A,3540.0135,N,13947.5385,E,0.00,172.30,140518,,,A*6F
[2018-05-11 03:51:55] $GPGGA,054933.000,3540.0135,N,13947.5385,E,1,10,0.8,18.4,M,39.4,M,,0000*68
[2018-05-11 03:51:55] $GPGSA,A,3,08,18,27,07,11,16,01,10,30,26,,,1.8,0.8,1.6*37
[2018-05-11 03:51:56] $GPRMC,054933.000,A,3540.0135,N,13947.5385,E,0.00,172.30,140518,,,A*6E
[2018-05-11 03:51:56] $GPGGA,054934.000,3540.0135,N,13947.5385,E,1,10,0.8,18.4,M,39.4,M,,0000*6F
[2018-05-11 03:51:56] $GPGSA,A,3,08,18,27,07,11,16,01,10,30,26,,,1.8,0.8,1.6*37
[2018-05-11 03:51:57] $GPRMC,054934.000,A,3540.0135,N,13947.5385,E,0.00,172.30,140518,,,A*69
[2018-05-11 03:51:57] $GPGGA,054935.000,3540.0135,N,13947.5385,E,1,10,0.8,18.4,M,39.4,M,,0000*6E
[2018-05-11 03:51:57] $GPGSA,A,3,08,18,27,07,11,16,01,10,30,26,,,1.8,0.8,1.6*37
[2018-05-11 03:51:58] $GPRMC,054935.000,A,3540.0135,N,13947.5385,E,0.00,172.30,140518,,,A*68
[2018-05-11 03:51:58] $GPGGA,054936.000,3540.0135,N,13947.5385,E,1,10,0.8,18.4,M,39.4,M,,0000*6D
[2018-05-11 03:51:58] $GPGSA,A,3,08,18,27,07,11,16,01,10,30,26,,,1.8,0.8,1.6*37
[2018-05-11 03:51:59] $GPGSV,3,1,12,08,64,320,45,18,50,199,42,27,49,041,47,07,40,295,45*7B
[2018-05-11 03:51:59] $GPGSV,3,2,12,11,40,231,43,16,39,105,43,01,26,205,32,10,19,079,28*78
[2018-05-11 03:51:59] $GPGSV,3,3,12,30,18,315,41,26,13,119,31,22,01,173,,20,01,036,*7D
[2018-05-11 03:51:59] $GPRMC,054936.000,A,3540.0135,N,13947.5385,E,0.00,172.30,140518,,,A*6B
[2018-05-11 03:51:59] $GPGGA,054937.000,3540.0135,N,13947.5385,E,1,10,0.8,18.4,M,39.4,M,,0000*6C
[2018-05-11 03:52:00] $GPGSA,A,3,08,18,27,07,11,16,01,10,30,26,,,1.8,0.8,1.6*37
[2018-05-11 03:52:00] $GPRMC,054937.000,A,3540.0135,N,13947.5385,E,0.00,172.30,140518,,,A*6A
[2018-05-11 03:52:00] $GPGGA,054938.000,3540.0135,N,13947.5385,E,1,10,0.8,18.4,M,39.4,M,,0000*63
[2018-05-11 03:52:00] $GPGSA,A,3,08,18,27,11,07,16,01,10,30,26,,,1.8,0.8,1.6*37
[2018-05-11 03:52:01] $GPRMC,054938.000,A,3540.0135,N,13947.5385,E,0.00,172.30,140518,,,A*65
[2018-05-11 03:52:01] $GPGGA,054939.000,3540.0135,N,13947.5385,E,1,10,0.8,18.4,M,39.4,M,,0000*62
[2018-05-11 03:52:01] $GPGSA,A,3,08,18,27,11,07,16,01,10,30,26,,,1.8,0.8,1.6*37
[2018-05-11 03:52:02] $GPRMC,054939.000,A,3540.0135,N,13947.5385,E,0.00,172.30,140518,,,A*64
[2018-05-11 03:52:02] $GPGGA,054940.000,3540.0135,N,13947.5385,E,1,10,0.8,18.4,M,39.4,M,,0000*6C
[2018-05-11 03:52:02] $GPGSA,A,3,08,18,27,11,07,16,01,10,30,26,,,1.8,0.8,1.6*37
[2018-05-11 03:52:03] $GPRMC,054940.000,A,3540.0135,N,13947.5385,E,0.00,172.30,140518,,,A*6A
[2018-05-11 03:52:03] $GPGGA,054941.000,3540.0135,N,13947.5385,E,1,10,0.8,18.4,M,39.4,M,,0000*6D
[2018-05-11 03:52:03] $GPGSA,A,3,08,18,27,11,07,16,01,10,30,26,,,1.8,0.8,1.6*37
[2018-05-11 03:52:04] $GPGSV,3,1,12,08,64,320,45,18,50,199,42,27,49,041,47,11,40,231,43*74
[2018-05-11 03:52:04] $GPGSV,3,2,12,07,40,295,46,16,38,106,31,01,26,205,42,10,19,079,10*7F
[2018-05-11 03:52:04] $GPGSV,3,3,12,30,18,315,41,26,13,119,23,20,01,036,,22,01,173,*7E
[2018-05-11 03:52:04] $GPRMC,054941.000,A,3540.0135,N,13947.5385,E,0.00,172.30,140518,,,A*6B
[2018-05-11 03:52:04] $GPGGA,054942.000,3540.0135,N,13947.5385,E,1,10,0.8,18.4,M,39.4,M,,0000*6E
[2018-05-11 03:52:04] $GPGSA,A,3,08,18,27,11,07,16,01,10,30,26,,,1.8,0.8,1.6*37
[2018-05-11 03:52:05] $GPRMC,054942.000,A,3540.0135,N,13947.5385,E,0.00,172.30,140518,,,A*68
[2018-05-11 03:52:05] $GPGGA,054943.000,3540.0135,N,13947.5385,E,1,10,0.8,18.4,M,39.4,M,,0000*6F
[2018-05-11 03:52:05] $GPGSA,A,3,08,18,27,11,07,16,01,10,30,26,,,1.8,0.8,1.6*37
[2018-05-11 03:52:06] $GPRMC,054943.000,A,3540.0135,N,13947.5385,E,0.00,172.30,140518,,,A*69
[2018-05-11 03:52:06] $GPGGA,054944.000,3540.0135,N,13947.5385,E,1,10,0.8,18.4,M,39.4,M,,0000*68
[2018-05-11 03:52:06] $GPGSA,A,3,08,18,27,11,07,16,01,10,30,26,,,1.8,0.8,1.6*37
[2018-05-11 03:52:07] $GPRMC,054944.000,A,3540.0135,N,13947.5385,E,0.00,172.30,140518,,,A*6E
[2018-05-11 03:52:07] $GPGGA,054945.000,3540.0135,N,13947.5385,E,1,10,0.8,18.4,M,39.4,M,,0000*69
[2018-05-11 03:52:07] $GPGSA,A,3,08,18,27,11,07,16,01,10,30,26,,,1.8,0.8,1.6*37
[2018-05-11 03:52:08] $GPRMC,054945.000,A,3540.0135,N,13947.5385,E,0.00,172.30,140518,,,A*6F
[2018-05-11 03:52:08] $GPGGA,054946.000,3540.0135,N,13947.5385,E,1,10,0.8,18.4,M,39.4,M,,0000*6A
[2018-05-11 03:52:08] $GPGSA,A,3,08,18,27,11,07,16,01,10,30,26,,,1.8,0.8,1.6*37
[2018-05-11 03:52:09] $GPGSV,3,1,12,08,64,320,44,18,50,199,43,27,49,041,42,11,40,231,42*70
[2018-05-11 03:52:09] $GPGSV,3,2,12,07,40,295,42,16,38,106,29,01,26,205,41,10,19,079,12*73
[2018-05-11 03:52:09] $GPGSV,3,3,12,30,19,315,40,26,13,119,11,20,01,036,11,22,01,173,*7F
[2018-05-11 03:52:09] $GPRMC,054946.000,A,3540.0135,N,13947.5385,E,0.00,172.30,140518,,,A*6C
[2018-05-11 03:52:09] $GPGGA,054947.000,3540.0135,N,13947.5385,E,1,10,0.8,18.4,M,39.4,M,,0000*6B
[2018-05-11 03:52:09] $GPGSA,A,3,08,18,27,11,07,16,01,10,30,26,,,1.8,0.8,1.6*37
[2018-05-11 03:52:10] $GPRMC,054947.000,A,3540.0135,N,13947.5385,E,0.00,172.30,140518,,,A*6D
[2018-05-11 03:52:10] $GPGGA,054948.000,3540.0135,N,13947.5385,E,1,10,0.8,18.4,M,39.4,M,,0000*64
[2018-05-11 03:52:10] $GPGSA,A,3,08,18,27,11,07,16,01,10,30,26,,,1.8,0.8,1.6*37
[2018-05-11 03:52:11] $GPRMC,054948.000,A,3540.0135,N,13947.5385,E,0.00,172.30,140518,,,A*62
[2018-05-11 03:52:11] $GPGGA,054949.000,3540.0135,N,13947.5385,E,1,10,0.8,18.4,M,39.4,M,,0000*65
[2018-05-11 03:52:11] $GPGSA,A,3,08,18,27,11,07,16,01,10,30,26,,,1.8,0.8,1.6*37
[2018-05-11 03:52:12] $GPRMC,054949.000,A,3540.0135,N,13947.5385,E,0.00,172.30,140518,,,A*63
[2018-05-11 03:52:12] $GPGGA,054950.000,3540.0135,N,13947.5385,E,1,10,0.8,18.4,M,39.4,M,,0000*6D
[2018-05-11 03:52:12] $GPGSA,A,3,08,18,27,11,07,16,01,10,30,26,,,1.8,0.8,1.6*37
[2018-05-11 03:52:13] $GPRMC,054950.000,A,3540.0135,N,13947.5385,E,0.00,172.30,140518,,,A*6B
[2018-05-11 03:52:13] $GPGGA,054951.000,3540.0135,N,13947.5385,E,1,10,0.8,18.4,M,39.4,M,,0000*6C
[2018-05-11 03:52:13] $GPGSA,A,3,08,18,27,11,07,16,01,10,30,26,,,1.8,0.8,1.6*37
[2018-05-11 03:52:14] $GPGSV,3,1,12,08,64,320,45,18,50,199,43,27,49,041,45,11,40,231,43*77
[2018-05-11 03:52:14] $GPGSV,3,2,12,07,40,295,45,16,38,106,35,01,26,205,40,10,19,079,25*7C
[2018-05-11 03:52:14] $GPGSV,3,3,12,30,19,315,39,26,13,119,27,22,01,173,,20,01,036,*74
[2018-05-11 03:52:14] $GPRMC,054951.000,A,3540.0135,N,13947.5385,E,0.00,172.30,140518,,,A*6A
[2018-05-11 03:52:14] $GPGGA,054952.000,3540.0135,N,13947.5385,E,1,10,0.8,18.4,M,39.4,M,,0000*6F
[2018-05-11 03:52:14] $GPGSA,A,3,08,18,27,11,07,16,01,10,30,26,,,1.8,0.8,1.6*37
[2018-05-11 03:52:15] $GPRMC,054952.000,A,3540.0135,N,13947.5385,E,0.00,172.30,140518,,,A*69
[2018-05-11 03:52:15] $GPGGA,054953.000,3540.0135,N,13947.5385,E,1,10,0.8,18.4,M,39.4,M,,0000*6E
[2018-05-11 03:52:15] $GPGSA,A,3,08,18,27,11,07,16,01,10,30,26,,,1.8,0.8,1.6*37
[2018-05-11 03:52:16] $GPRMC,054953.000,A,3540.0135,N,13947.5385,E,0.00,172.30,140518,,,A*68
[2018-05-11 03:52:16] $GPGGA,054954.000,3540.0135,N,13947.5385,E,1,10,0.8,18.4,M,39.4,M,,0000*69
[2018-05-11 03:52:16] $GPGSA,A,3,08,18,27,11,07,16,01,10,30,26,,,1.8,0.8,1.6*37
[2018-05-11 03:52:17] $GPRMC,054954.000,A,3540.0135,N,13947.5385,E,0.00,172.30,140518,,,A*6F
[2018-05-11 03:52:17] $GPGGA,054955.000,3540.0135,N,13947.5385,E,1,10,0.8,18.4,M,39.4,M,,0000*68
[2018-05-11 03:52:17] $GPGSA,A,3,08,18,27,11,07,16,01,10,30,26,,,1.8,0.8,1.6*37
[2018-05-11 03:52:18] $GPRMC,054955.000,A,3540.0135,N,13947.5385,E,0.00,172.30,140518,,,A*6E
[2018-05-11 03:52:18] $GPGGA,054956.000,3540.0135,N,13947.5385,E,1,10,0.8,18.4,M,39.4,M,,0000*6B
[2018-05-11 03:52:18] $GPGSA,A,3,08,18,27,11,07,16,01,10,30,26,,,1.8,0.8,1.6*37
[2018-05-11 03:52:19] $GPGSV,3,1,12,08,64,320,46,18,50,199,43,27,49,041,45,11,40,231,43*74
[2018-05-11 03:52:19] $GPGSV,3,2,12,07,40,295,46,16,38,106,23,01,26,205,39,10,19,079,20*73
[2018-05-11 03:52:19] $GPGSV,3,3,12,30,19,315,39,26,13,119,23,22,01,173,,20,01,036,*70
[2018-05-11 03:52:19] $GPRMC,054956.000,A,3540.0135,N,13947.5385,E,0.00,172.30,140518,,,A*6D
[2018-05-11 03:52:19] $GPGGA,054957.000,3540.0135,N,13947.5385,E,1,10,0.8,18.4,M,39.4,M,,0000*6A
[2018-05-11 03:52:19] $GPGSA,A,3,08,18,27,11,07,16,01,10,30,26,,,1.8,0.8,1.6*37
[2018-05-11 03:52:20] $GPRMC,054957.000,A,3540.0135,N,13947.5385,E,0.00,172.30,140518,,,A*6C
[2018-05-11 03:52:20] $GPGGA,054958.000,3540.0135,N,13947.5385,E,1,10,0.8,18.4,M,39.4,M,,0000*65
[2018-05-11 03:52:20] $GPGSA,A,3,08,18,27,11,07,16,01,10,30,26,,,1.8,0.8,1.6*37
[2018-05-11 03:52:21] $GPRMC,054958.000,A,3540.0135,N,13947.5385,E,0.00,172.30,140518,,,A*63
[2018-05-11 03:52:21] $GPGGA,054959.000,3540.0135,N,13947.5385,E,1,10,0.8,18.4,M,39.4,M,,0000*64
[2018-05-11 03:52:21] $GPGSA,A,3,08,18,27,11,07,16,01,10,30,26,,,1.8,0.8,1.6*37
[2018-05-11 03:52:22] $GPRMC,054959.000,A,3540.0135,N,13947.5385,E,0.00,172.30,140518,,,A*62
[2018-05-11 03:52:22] $GPGGA,055000.000,3540.0135,N,13947.5385,E,1,10,0.8,18.4,M,39.4,M,,0000*60
[2018-05-11 03:52:22] $GPGSA,A,3,08,18,27,11,07,16,01,10,30,26,,,1.8,0.8,1.6*37
[2018-05-11 03:52:23] $GPRMC,055000.000,A,3540.0135,N,13947.5385,E,0.00,172.30,140518,,,A*66
[2018-05-11 03:52:23] $GPGGA,055001.000,3540.0135,N,13947.5385,E,1,10,0.8,18.4,M,39.4,M,,0000*61
[2018-05-11 03:52:23] $GPGSA,A,3,08,18,27,11,07,16,01,10,30,26,,,1.8,0.8,1.6*37
[2018-05-11 03:52:24] $GPGSV,3,1,12,08,64,320,46,18,50,199,43,27,49,041,46,11,40,231,44*70
[2018-05-11 03:52:24] $GPGSV,3,2,12,07,40,295,47,16,38,106,31,01,26,205,33,10,19,079,23*78
[2018-05-11 03:52:24] $GPGSV,3,3,12,30,19,315,39,26,13,119,26,20,01,036,04,22,01,173,*71
[2018-05-11 03:52:24] $GPRMC,055001.000,A,3540.0135,N,13947.5385,E,0.00,172.30,140518,,,A*67
[2018-05-11 03:52:24] $GPGGA,055002.000,3540.0135,N,13947.5385,E,1,10,0.8,18.4,M,39.4,M,,0000*62
[2018-05-11 03:52:24] $GPGSA,A,3,08,18,27,11,07,16,01,10,30,26,,,1.8,0.8,1.6*37
[2018-05-11 03:52:25] $GPRMC,055002.000,A,3540.0135,N,13947.5385,E,0.00,172.30,140518,,,A*64
[2018-05-11 03:52:25] $GPGGA,055003.000,3540.0135,N,13947.5385,E,1,10,0.8,18.4,M,39.4,M,,0000*63
[2018-05-11 03:52:25] $GPGSA,A,3,08,18,27,11,07,16,01,10,30,26,,,1.8,0.8,1.6*37
[2018-05-11 03:52:26] $GPRMC,055003.000,A,3540.0135,N,13947.5385,E,0.00,172.30,140518,,,A*65
[2018-05-11 03:52:26] $GPGGA,055004.000,3540.0135,N,13947.5385,E,1,10,0.8,18.4,M,39.4,M,,0000*64
[2018-05-11 03:52:26] $GPGSA,A,3,08,18,27,11,07,16,01,10,30,26,,,1.8,0.8,1.6*37
[2018-05-11 03:52:27] $GPRMC,055004.000,A,3540.0135,N,13947.5385,E,0.00,172.30,140518,,,A*62
[2018-05-11 03:52:27] $GPGGA,055005.000,3540.0135,N,13947.5385,E,1,10,0.8,18.4,M,39.4,M,,0000*65
[2018-05-11 03:52:27] $GPGSA,A,3,08,18,27,11,07,16,01,10,30,26,,,1.8,0.8,1.6*37
[2018-05-11 03:52:28] $GPRMC,055005.000,A,3540.0135,N,13947.5385,E,0.00,172.30,140518,,,A*63
[2018-05-11 03:52:28] $GPGGA,055006.000,3540.0135,N,13947.5385,E,1,10,0.8,18.4,M,39.4,M,,0000*66
[2018-05-11 03:52:28] $GPGSA,A,3,08,18,27,11,07,16,01,10,30,26,,,1.8,0.8,1.6*37
[2018-05-11 03:52:29] $GPGSV,3,1,12,08,64,320,46,18,50,199,43,27,49,041,47,11,40,231,44*71
[2018-05-11 03:52:29] $GPGSV,3,2,12,07,40,295,47,16,38,106,32,01,26,205,33,10,19,079,28*70
[2018-05-11 03:52:29] $GPGSV,3,3,12,30,19,315,39,26,13,119,26,22,01,173,,20,01,036,*75
[2018-05-11 03:52:29] $GPRMC,055006.000,A,3540.0135,N,13947.5385,E,0.00,172.30,140518,,,A*60
[2018-05-11 03:52:29] $GPGGA,055007.000,3540.0135,N,13947.5385,E,1,10,0.8,18.4,M,39.4,M,,0000*67
[2018-05-11 03:52:29] $GPGSA,A,3,08,18,27,11,07,16,01,10,30,26,,,1.8,0.8,1.6*37
[2018-05-11 03:52:30] $GPRMC,055007.000,A,3540.0135,N,13947.5385,E,0.00,172.30,140518,,,A*61
[2018-05-11 03:52:30] $GPGGA,055008.000,3540.0135,N,13947.5385,E,1,10,0.8,18.4,M,39.4,M,,0000*68
[2018-05-11 03:52:30] $GPGSA,A,3,08,18,27,11,07,16,01,10,30,26,,,1.8,0.8,1.6*37
[2018-05-11 03:52:31] $GPRMC,055008.000,A,3540.0135,N,13947.5385,E,0.00,172.30,140518,,,A*6E
[2018-05-11 03:52:31] $GPGGA,055009.000,3540.0135,N,13947.5385,E,1,10,0.8,18.4,M,39.4,M,,0000*69
[2018-05-11 03:52:31] $GPGSA,A,3,08,18,27,11,07,16,01,10,30,26,,,1.8,0.8,1.6*37
[2018-05-11 03:52:32] $GPRMC,055009.000,A,3540.0135,N,13947.5385,E,0.00,172.30,140518,,,A*6F
[2018-05-11 03:52:32] $GPGGA,055010.000,3540.0135,N,13947.5385,E,1,10,0.8,18.4,M,39.4,M,,0000*61
[2018-05-11 03:52:32] $GPGSA,A,3,08,18,27,11,07,16,01,10,30,26,,,1.8,0.8,1.6*37
[2018-05-11 03:52:33] $GPRMC,055010.000,A,3540.0135,N,13947.5385,E,0.00,172.30,140518,,,A*67
[2018-05-11 03:52:33] $GPGGA,055011.000,3540.0135,N,13947.5385,E,1,10,0.8,18.4,M,39.4,M,,0000*60
[2018-05-11 03:52:33] $GPGSA,A,3,08,18,27,11,07,16,01,10,30,26,,,1.8,0.8,1.6*37
[2018-05-11 03:52:34] $GPGSV,3,1,12,08,64,320,46,18,50,199,43,27,49,041,47,11,40,231,44*71
[2018-05-11 03:52:34] $GPGSV,3,2,12,07,40,295,47,16,38,106,33,01,26,205,34,10,19,079,28*76
[2018-05-11 03:52:34] $GPGSV,3,3,12,30,19,315,39,26,13,119,26,22,01,173,,20,01,036,*75
[2018-05-11 03:52:34] $GPRMC,055011.000,A,3540.0135,N,13947.5385,E,0.00,172.30,140518,,,A*66
[2018-05-11 03:52:34] $GPGGA,055012.000,3540.0135,N,13947.5385,E,1,10,0.8,18.4,M,39.4,M,,0000*63
[2018-05-11 03:52:34] $GPGSA,A,3,08,18,27,11,07,16,01,10,30,26,,,1.8,0.8,1.6*37
[2018-05-11 03:52:35] $GPRMC,055012.000,A,3540.0135,N,13947.5385,E,0.00,172.30,140518,,,A*65
[2018-05-11 03:52:35] $GPGGA,055013.000,3540.0135,N,13947.5385,E,1,10,0.8,18.4,M,39.4,M,,0000*62
[2018-05-11 03:52:36] $GPGSA,A,3,08,18,27,11,07,16,01,10,30,26,,,1.8,0.8,1.6*37
[2018-05-11 03:52:36] $GPRMC,055013.000,A,3540.0135,N,13947.5385,E,0.00,172.30,140518,,,A*64
[2018-05-11 03:52:36] $GPGGA,055014.000,3540.0135,N,13947.5385,E,1,10,0.8,18.4,M,39.4,M,,0000*65
[2018-05-11 03:52:36] $GPGSA,A,3,08,18,27,11,07,16,01,10,30,26,,,1.8,0.8,1.6*37
[2018-05-11 03:52:37] $GPRMC,055014.000,A,3540.0135,N,13947.5385,E,0.00,172.30,140518,,,A*63
[2018-05-11 03:52:37] $GPGGA,055015.000,3540.0135,N,13947.5385,E,1,10,0.8,18.4,M,39.4,M,,0000*64
[2018-05-11 03:52:37] $GPGSA,A,3,08,18,27,11,07,16,01,10,30,26,,,1.8,0.8,1.6*37
[2018-05-11 03:52:38] $GPRMC,055015.000,A,3540.0135,N,13947.5385,E,0.00,172.30,140518,,,A*62
[2018-05-11 03:52:38] $GPGGA,055016.000,3540.0135,N,13947.5385,E,1,10,0.8,18.4,M,39.4,M,,0000*67
[2018-05-11 03:52:38] $GPGSA,A,3,08,18,27,11,07,16,01,10,30,26,,,1.8,0.8,1.6*37
[2018-05-11 03:52:39] $GPGSV,3,1,12,08,64,321,46,18,51,199,43,27,49,041,47,11,40,232,44*72
[2018-05-11 03:52:39] $GPGSV,3,2,12,07,40,294,47,16,38,106,39,01,27,205,35,10,19,078,24*70
[2018-05-11 03:52:39] $GPGSV,3,3,12,30,19,315,39,26,13,120,28,20,00,035,13,22,02,172,*73
[2018-05-11 03:52:39] $GPRMC,055016.000,A,3540.0135,N,13947.5385,E,0.00,172.30,140518,,,A*61
[2018-05-11 03:52:39] $GPGGA,055017.000,3540.0135,N,13947.5385,E,1,10,0.8,18.4,M,39.4,M,,0000*66
[2018-05-11 03:52:39] $GPGSA,A,3,08,18,27,11,07,16,01,10,30,26,,,1.8,0.8,1.6*37
[2018-05-11 03:52:40] $GPRMC,055017.000,A,3540.0135,N,13947.5385,E,0.00,172.30,140518,,,A*60
[2018-05-11 03:52:40] $GPGGA,055018.000,3540.0135,N,13947.5385,E,1,10,0.8,18.4,M,39.4,M,,0000*69
[2018-05-11 03:52:40] $GPGSA,A,3,08,18,27,11,07,16,01,10,30,26,,,1.8,0.8,1.6*37
[2018-05-11 03:52:41] $GPRMC,055018.000,A,3540.0135,N,13947.5385,E,0.00,172.30,140518,,,A*6F
[2018-05-11 03:52:41] $GPGGA,055019.000,3540.0135,N,13947.5385,E,1,10,0.8,18.4,M,39.4,M,,0000*68
[2018-05-11 03:52:41] $GPGSA,A,3,08,18,27,11,07,16,01,10,30,26,,,1.8,0.8,1.6*37
[2018-05-11 03:52:42] $GPRMC,055019.000,A,3540.0135,N,13947.5385,E,0.00,172.30,140518,,,A*6E
[2018-05-11 03:52:42] $GPGGA,055020.000,3540.0135,N,13947.5385,E,1,10,0.8,18.4,M,39.4,M,,0000*62
[2018-05-11 03:52:42] $GPGSA,A,3,08,18,27,11,07,16,01,10,30,26,,,1.8,0.8,1.6*37
[2018-05-11 03:52:43] $GPRMC,055020.000,A,3540.0135,N,13947.5385,E,0.00,172.30,140518,,,A*64
[2018-05-11 03:52:43] $GPGGA,055021.000,3540.0135,N,13947.5385,E,1,10,0.8,18.4,M,39.4,M,,0000*63
[2018-05-11 03:52:43] $GPGSA,A,3,08,18,27,11,07,16,01,10,30,26,,,1.8,0.8,1.6*37
[2018-05-11 03:52:44] $GPGSV,3,1,12,08,64,321,46,18,51,199,43,27,49,041,47,11,40,232,44*72
[2018-05-11 03:52:44] $GPGSV,3,2,12,07,40,294,47,16,38,106,39,01,27,205,35,10,19,078,26*72
[2018-05-11 03:52:44] $GPGSV,3,3,12,30,19,315,39,26,13,120,29,22,02,172,,20,00,035,*70
[2018-05-11 03:52:44] $GPRMC,055021.000,A,3540.0135,N,13947.5385,E,0.00,172.30,140518,,,A*65
[2018-05-11 03:52:44] $GPGGA,055022.000,3540.0135,N,13947.5385,E,1,10,0.8,18.4,M,39.4,M,,0000*60
[2018-05-11 03:52:44] $GPGSA,A,3,08,18,27,11,07,16,01,10,30,26,,,1.8,0.8,1.6*37
[2018-05-11 03:52:45] $GPRMC,055022.000,A,3540.0135,N,13947.5385,E,0.00,172.30,140518,,,A*66
[2018-05-11 03:52:45] $GPGGA,055023.000,3540.0135,N,13947.5385,E,1,10,0.8,18.4,M,39.4,M,,0000*61
[2018-05-11 03:52:45] $GPGSA,A,3,08,18,27,11,07,16,01,10,30,26,,,1.8,0.8,1.6*37
[2018-05-11 03:52:46] $GPRMC,055023.000,A,3540.0135,N,13947.5385,E,0.00,172.30,140518,,,A*67
[2018-05-11 03:52:46] $GPGGA,055024.000,3540.0135,N,13947.5385,E,1,10,0.8,18.4,M,39.4,M,,0000*66
[2018-05-11 03:52:46] $GPGSA,A,3,08,18,27,11,07,16,01,10,30,26,,,1.8,0.8,1.6*37
[2018-05-11 03:52:47] $GPRMC,055024.000,A,3540.0135,N,13947.5385,E,0.00,172.30,140518,,,A*60
[2018-05-11 03:52:47] $GPGGA,055025.000,3540.0135,N,13947.5385,E,1,10,0.8,18.4,M,39.4,M,,0000*67
[2018-05-11 03:52:47] $GPGSA,A,3,08,18,27,11,07,16,01,10,30,26,,,1.8,0.8,1.6*37
[2018-05-11 03:52:48] $GPRMC,055025.000,A,3540.0135,N,13947.5385,E,0.00,172.30,140518,,,A*61
[2018-05-11 03:52:48] $GPGGA,055026.000,3540.0135,N,13947.5385,E,1,10,0.8,18.4,M,39.4,M,,0000*64
[2018-05-11 03:52:48] $GPGSA,A,3,08,18,27,11,07,16,01,10,30,26,,,1.8,0.8,1.6*37
[2018-05-11 03:52:49] $GPGSV,3,1,12,08,64,321,46,18,51,199,43,27,49,041,47,11,40,232,44*72
[2018-05-11 03:52:49] $GPGSV,3,2,12,07,40,294,47,16,38,106,40,01,27,205,36,10,19,078,26*7F
[2018-05-11 03:52:49] $GPGSV,3,3,12,30,19,315,39,26,13,120,30,20,00,035,06,22,02,172,*7E
[2018-05-11 03:52:49] $GPRMC,055026.000,A,3540.0135,N,13947.5385,E,0.00,172.30,140518,,,A*62
[2018-05-11 03:52:49] $GPGGA,055027.000,3540.0135,N,13947.5385,E,1,10,0.8,18.4,M,39.4,M,,0000*65
[2018-05-11 03:52:49] $GPGSA,A,3,08,18,27,11,07,16,01,10,30,26,,,1.8,0.8,1.6*37
[2018-05-11 03:52:50] $GPRMC,055027.000,A,3540.0135,N,13947.5385,E,0.00,172.30,140518,,,A*63
[2018-05-11 03:52:50] $GPGGA,055028.000,3540.0135,N,13947.5385,E,1,10,0.8,18.4,M,39.4,M,,0000*6A
[2018-05-11 03:52:50] $GPGSA,A,3,08,18,27,11,07,16,01,10,30,26,,,1.8,0.8,1.6*37
[2018-05-11 03:52:51] $GPRMC,055028.000,A,3540.0135,N,13947.5385,E,0.00,172.30,140518,,,A*6C
[2018-05-11 03:52:51] $GPGGA,055029.000,3540.0135,N,13947.5385,E,1,10,0.8,18.4,M,39.4,M,,0000*6B
[2018-05-11 03:52:51] $GPGSA,A,3,08,18,27,11,07,16,01,10,30,26,,,1.8,0.8,1.6*37
[2018-05-11 03:52:52] $GPRMC,055029.000,A,3540.0135,N,13947.5385,E,0.00,172.30,140518,,,A*6D
[2018-05-11 03:52:52] $GPGGA,055030.000,3540.0135,N,13947.5385,E,1,10,0.8,18.4,M,39.4,M,,0000*63
[2018-05-11 03:52:52] $GPGSA,A,3,08,18,27,11,07,16,01,10,30,26,,,1.8,0.8,1.6*37
[2018-05-11 03:52:53] $GPRMC,055030.000,A,3540.0135,N,13947.5385,E,0.00,172.30,140518,,,A*65
[2018-05-11 03:52:53] $GPGGA,055031.000,3540.0135,N,13947.5385,E,1,10,0.8,18.4,M,39.4,M,,0000*62
[2018-05-11 03:52:53] $GPGSA,A,3,08,18,27,11,07,16,01,10,30,26,,,1.8,0.8,1.6*37
[2018-05-11 03:52:54] $GPGSV,3,1,12,08,64,321,46,18,51,199,43,27,49,041,43,11,40,232,44*76
[2018-05-11 03:52:54] $GPGSV,3,2,12,07,40,294,47,16,38,106,36,01,27,205,43,10,19,078,21*7B
[2018-05-11 03:52:54] $GPGSV,3,3,12,30,19,315,40,26,13,120,24,22,02,172,,20,00,035,*73
[2018-05-11 03:52:54] $GPRMC,055031.000,A,3540.0135,N,13947.5385,E,0.00,172.30,140518,,,A*64
[2018-05-11 03:52:54] $GPGGA,055032.000,3540.0135,N,13947.5385,E,1,10,0.8,18.4,M,39.4,M,,0000*61
[2018-05-11 03:52:54] $GPGSA,A,3,08,18,27,11,07,16,01,10,30,26,,,1.8,0.8,1.6*37
[2018-05-11 03:52:55] $GPRMC,055032.000,A,3540.0135,N,13947.5385,E,0.00,172.30,140518,,,A*67
[2018-05-11 03:52:55] $GPGGA,055033.000,3540.0135,N,13947.5385,E,1,10,0.8,18.4,M,39.4,M,,0000*60
[2018-05-11 03:52:55] $GPGSA,A,3,08,18,27,11,07,16,01,10,30,26,,,1.8,0.8,1.6*37
[2018-05-11 03:52:56] $GPRMC,055033.000,A,3540.0135,N,13947.5385,E,0.00,172.30,140518,,,A*66
[2018-05-11 03:52:56] $GPGGA,055034.000,3540.0135,N,13947.5385,E,1,09,0.9,18.4,M,39.4,M,,0000*6E
[2018-05-11 03:52:56] $GPGSA,A,3,08,18,27,11,07,16,01,30,26,,,,1.9,0.9,1.7*37
[2018-05-11 03:52:57] $GPRMC,055034.000,A,3540.0135,N,13947.5385,E,0.00,172.30,140518,,,A*61
[2018-05-11 03:52:57] $GPGGA,055035.000,3540.0135,N,13947.5385,E,1,10,0.8,18.4,M,39.4,M,,0000*66
[2018-05-11 03:52:57] $GPGSA,A,3,08,18,27,11,07,16,01,10,30,26,,,1.8,0.8,1.6*37
[2018-05-11 03:52:58] $GPRMC,055035.000,A,3540.0135,N,13947.5385,E,0.00,172.30,140518,,,A*60
[2018-05-11 03:52:58] $GPGGA,055036.000,3540.0135,N,13947.5385,E,1,10,0.8,18.4,M,39.4,M,,0000*65
[2018-05-11 03:52:58] $GPGSA,A,3,08,18,27,11,07,16,01,10,30,26,,,1.8,0.8,1.6*37
[2018-05-11 03:52:59] $GPGSV,3,1,12,08,64,321,47,18,51,199,44,27,49,041,46,11,40,232,43*72
[2018-05-11 03:52:59] $GPGSV,3,2,12,07,40,294,47,16,38,106,43,01,27,205,44,10,19,078,26*79
[2018-05-11 03:52:59] $GPGSV,3,3,12,30,19,315,42,26,13,120,27,22,02,172,,20,00,035,*72
[2018-05-11 03:52:59] $GPRMC,055036.000,A,3540.0135,N,13947.5385,E,0.00,172.30,140518,,,A*63
[2018-05-11 03:52:59] $GPGGA,055037.000,3540.0135,N,13947.5385,E,1,10,0.8,18.4,M,39.4,M,,0000*64
[2018-05-11 03:52:59] $GPGSA,A,3,08,18,27,11,07,16,01,10,30,26,,,1.8,0.8,1.6*37
[2018-05-11 03:53:00] $GPRMC,055037.000,A,3540.0135,N,13947.5385,E,0.00,172.30,140518,,,A*62
[2018-05-11 03:53:00] $GPGGA,055038.000,3540.0135,N,13947.5385,E,1,10,0.8,18.4,M,39.4,M,,0000*6B
[2018-05-11 03:53:00] $GPGSA,A,3,08,18,27,11,07,16,01,10,30,26,,,1.8,0.8,1.6*37
[2018-05-11 03:53:01] $GPRMC,055038.000,A,3540.0135,N,13947.5385,E,0.00,172.30,140518,,,A*6D
[2018-05-11 03:53:01] $GPGGA,055039.000,3540.0135,N,13947.5385,E,1,10,0.8,18.4,M,39.4,M,,0000*6A
[2018-05-11 03:53:01] $GPGSA,A,3,08,18,27,11,07,16,01,10,30,26,,,1.8,0.8,1.6*37
[2018-05-11 03:53:02] $GPRMC,055039.000,A,3540.0135,N,13947.5385,E,0.00,172.30,140518,,,A*6C
[2018-05-11 03:53:02] $GPGGA,055040.000,3540.0135,N,13947.5385,E,1,10,0.8,18.4,M,39.4,M,,0000*64
[2018-05-11 03:53:02] $GPGSA,A,3,08,18,27,11,07,16,01,10,30,26,,,1.8,0.8,1.6*37
[2018-05-11 03:53:03] $GPRMC,055040.000,A,3540.0135,N,13947.5385,E,0.00,172.30,140518,,,A*62
[2018-05-11 03:53:03] $GPGGA,055041.000,3540.0135,N,13947.5385,E,1,10,0.8,18.4,M,39.4,M,,0000*65
[2018-05-11 03:53:03] $GPGSA,A,3,08,18,27,11,07,16,01,10,30,26,,,1.8,0.8,1.6*37
[2018-05-11 03:53:04] $GPGSV,3,1,12,08,64,321,47,18,51,199,44,27,49,041,46,11,40,232,43*72
[2018-05-11 03:53:04] $GPGSV,3,2,12,07,40,294,47,16,38,106,43,01,27,205,43,10,19,078,26*7E
[2018-05-11 03:53:04] $GPGSV,3,3,12,30,19,315,42,26,13,120,22,22,02,172,,20,00,035,*77
[2018-05-11 03:53:04] $GPRMC,055041.000,A,3540.0135,N,13947.5385,E,0.00,172.30,140518,,,A*63
[2018-05-11 03:53:04] $GPGGA,055042.000,3540.0135,N,13947.5385,E,1,10,0.8,18.4,M,39.4,M,,0000*66
[2018-05-11 03:53:04] $GPGSA,A,3,08,18,27,11,07,16,01,10,30,26,,,1.8,0.8,1.6*37
[2018-05-11 03:53:05] $GPRMC,055042.000,A,3540.0135,N,13947.5385,E,0.00,172.30,140518,,,A*60
[2018-05-11 03:53:05] $GPGGA,055043.000,3540.0135,N,13947.5385,E,1,10,0.8,18.4,M,39.4,M,,0000*67
[2018-05-11 03:53:05] $GPGSA,A,3,08,18,27,11,07,16,01,10,30,26,,,1.8,0.8,1.6*37
[2018-05-11 03:53:06] $GPRMC,055043.000,A,3540.0135,N,13947.5385,E,0.00,172.30,140518,,,A*61
[2018-05-11 03:53:06] $GPGGA,055044.000,3540.0135,N,13947.5385,E,1,10,0.8,18.4,M,39.4,M,,0000*60
[2018-05-11 03:53:06] $GPGSA,A,3,08,18,27,11,07,16,01,10,30,26,,,1.8,0.8,1.6*37
[2018-05-11 03:53:07] $GPRMC,055044.000,A,3540.0135,N,13947.5385,E,0.00,172.30,140518,,,A*66
[2018-05-11 03:53:07] $GPGGA,055045.000,3540.0135,N,13947.5385,E,1,10,0.8,18.4,M,39.4,M,,0000*61
[2018-05-11 03:53:07] $GPGSA,A,3,08,18,27,11,07,16,01,10,30,26,,,1.8,0.8,1.6*37
[2018-05-11 03:53:08] $GPRMC,055045.000,A,3540.0135,N,13947.5385,E,0.00,172.30,140518,,,A*67
[2018-05-11 03:53:08] $GPGGA,055046.000,3540.0135,N,13947.5385,E,1,10,0.8,18.4,M,39.4,M,,0000*62
[2018-05-11 03:53:08] $GPGSA,A,3,08,18,27,11,07,16,01,10,30,26,,,1.8,0.8,1.6*37
[2018-05-11 03:53:09] $GPGSV,3,1,12,08,64,321,47,18,51,199,43,27,49,041,47,11,40,232,43*74
[2018-05-11 03:53:09] $GPGSV,3,2,12,07,40,294,48,16,38,106,43,01,27,205,43,10,19,078,26*71
[2018-05-11 03:53:09] $GPGSV,3,3,12,30,19,315,43,26,13,120,22,22,02,172,,20,00,035,*76
[2018-05-11 03:53:09] $GPRMC,055046.000,A,3540.0135,N,13947.5385,E,0.00,172.30,140518,,,A*64
[2018-05-11 03:53:09] $GPGGA,055047.000,3540.0135,N,13947.5385,E,1,10,0.8,18.4,M,39.4,M,,0000*63
[2018-05-11 03:53:09] $GPGSA,A,3,08,18,27,11,07,16,01,10,30,26,,,1.8,0.8,1.6*37
[2018-05-11 03:53:10] $GPRMC,055047.000,A,3540.0135,N,13947.5385,E,0.00,172.30,140518,,,A*65
[2018-05-11 03:53:10] $GPGGA,055048.000,3540.0135,N,13947.5385,E,1,10,0.8,18.4,M,39.4,M,,0000*6C
[2018-05-11 03:53:10] $GPGSA,A,3,08,18,27,11,07,16,01,10,30,26,,,1.8,0.8,1.6*37
[2018-05-11 03:53:11] $GPRMC,055048.000,A,3540.0135,N,13947.5385,E,0.00,172.30,140518,,,A*6A
[2018-05-11 03:53:11] $GPGGA,055049.000,3540.0135,N,13947.5385,E,1,10,0.8,18.4,M,39.4,M,,0000*6D
[2018-05-11 03:53:11] $GPGSA,A,3,08,18,27,11,07,16,01,10,30,26,,,1.8,0.8,1.6*37
[2018-05-11 03:53:12] $GPRMC,055049.000,A,3540.0135,N,13947.5385,E,0.00,172.30,140518,,,A*6B
[2018-05-11 03:53:12] $GPGGA,055050.000,3540.0135,N,13947.5385,E,1,10,0.8,18.4,M,39.4,M,,0000*65
[2018-05-11 03:53:12] $GPGSA,A,3,08,18,27,11,07,16,01,10,30,26,,,1.8,0.8,1.6*37
[2018-05-11 03:53:13] $GPRMC,055050.000,A,3540.0135,N,13947.5385,E,0.00,172.30,140518,,,A*63
[2018-05-11 03:53:13] $GPGGA,055051.000,3540.0135,N,13947.5385,E,1,10,0.8,18.4,M,39.4,M,,0000*64
[2018-05-11 03:53:13] $GPGSA,A,3,08,18,27,11,07,16,01,10,30,26,,,1.8,0.8,1.6*37
[2018-05-11 03:53:14] $GPGSV,3,1,12,08,64,321,47,18,51,199,44,27,49,041,47,11,40,232,43*73
[2018-05-11 03:53:14] $GPGSV,3,2,12,07,40,294,48,16,38,106,43,01,27,205,43,10,19,078,26*71
[2018-05-11 03:53:14] $GPGSV,3,3,12,30,19,315,42,26,13,120,29,22,02,172,,20,00,035,*7C
[2018-05-11 03:53:14] $GPRMC,055051.000,A,3540.0135,N,13947.5385,E,0.00,172.30,140518,,,A*62
[2018-05-11 03:53:14] $GPGGA,055052.000,3540.0135,N,13947.5385,E,1,10,0.8,18.4,M,39.4,M,,0000*67
[2018-05-11 03:53:14] $GPGSA,A,3,08,18,27,11,07,16,01,10,30,26,,,1.8,0.8,1.6*37
[2018-05-11 03:53:15] $GPRMC,055052.000,A,3540.0135,N,13947.5385,E,0.00,172.30,140518,,,A*61
[2018-05-11 03:53:15] $GPGGA,055053.000,3540.0135,N,13947.5385,E,1,10,0.8,18.4,M,39.4,M,,0000*66
[2018-05-11 03:53:15] $GPGSA,A,3,08,18,27,11,07,16,01,10,30,26,,,1.8,0.8,1.6*37
[2018-05-11 03:53:16] $GPRMC,055053.000,A,3540.0135,N,13947.5385,E,0.00,172.30,140518,,,A*60
[2018-05-11 03:53:16] $GPGGA,055054.000,3540.0135,N,13947.5385,E,1,10,0.8,18.4,M,39.4,M,,0000*61
[2018-05-11 03:53:16] $GPGSA,A,3,08,18,27,11,07,16,01,10,30,26,,,1.8,0.8,1.6*37
[2018-05-11 03:53:17] $GPRMC,055054.000,A,3540.0135,N,13947.5385,E,0.00,172.30,140518,,,A*67
[2018-05-11 03:53:17] $GPGGA,055055.000,3540.0135,N,13947.5385,E,1,10,0.8,18.4,M,39.4,M,,0000*60
[2018-05-11 03:53:17] $GPGSA,A,3,08,18,27,11,07,16,01,10,30,26,,,1.8,0.8,1.6*37
[2018-05-11 03:53:18] $GPRMC,055055.000,A,3540.0135,N,13947.5385,E,0.00,172.30,140518,,,A*66
[2018-05-11 03:53:18] $GPGGA,055056.000,3540.0135,N,13947.5386,E,1,10,0.8,18.4,M,39.4,M,,0000*60
[2018-05-11 03:53:18] $GPGSA,A,3,08,18,27,11,07,16,01,10,30,26,,,1.8,0.8,1.6*37
[2018-05-11 03:53:19] $GPGSV,3,1,12,08,64,321,47,18,51,199,44,27,49,041,47,11,40,232,43*73
[2018-05-11 03:53:19] $GPGSV,3,2,12,07,40,294,47,16,38,106,43,01,27,205,43,10,19,078,27*7F
[2018-05-11 03:53:19] $GPGSV,3,3,12,30,19,315,42,26,13,120,29,22,02,172,,20,00,035,*7C
[2018-05-11 03:53:19] $GPRMC,055056.000,A,3540.0135,N,13947.5386,E,0.00,172.30,140518,,,A*66
[2018-05-11 03:53:19] $GPGGA,055057.000,3540.0135,N,13947.5386,E,1,10,0.8,18.4,M,39.4,M,,0000*61
[2018-05-11 03:53:19] $GPGSA,A,3,08,18,27,11,07,16,01,10,30,26,,,1.8,0.8,1.6*37
[2018-05-11 03:53:20] $GPRMC,055057.000,A,3540.0135,N,13947.5386,E,0.00,172.30,140518,,,A*67
[2018-05-11 03:53:20] $GPGGA,055058.000,3540.0135,N,13947.5386,E,1,10,0.8,18.4,M,39.4,M,,0000*6E
[2018-05-11 03:53:20] $GPGSA,A,3,08,18,27,11,07,16,01,10,30,26,,,1.8,0.8,1.6*37
[2018-05-11 03:53:21] $GPRMC,055058.000,A,3540.0135,N,13947.5386,E,0.00,172.30,140518,,,A*68
[2018-05-11 03:53:21] $GPGGA,055059.000,3540.0135,N,13947.5386,E,1,10,0.8,18.4,M,39.4,M,,0000*6F
[2018-05-11 03:53:21] $GPGSA,A,3,08,18,27,11,07,16,01,10,30,26,,,1.8,0.8,1.6*37
[2018-05-11 03:53:22] $GPRMC,055059.000,A,3540.0135,N,13947.5386,E,0.00,172.30,140518,,,A*69
[2018-05-11 03:53:22] $GPGGA,055100.000,3540.0135,N,13947.5386,E,1,10,0.8,18.4,M,39.4,M,,0000*62
[2018-05-11 03:53:22] $GPGSA,A,3,08,18,27,11,07,16,01,10,30,26,,,1.8,0.8,1.6*37
[2018-05-11 03:53:23] $GPRMC,055100.000,A,3540.0135,N,13947.5386,E,0.00,172.30,140518,,,A*64
[2018-05-11 03:53:23] $GPGGA,055101.000,3540.0135,N,13947.5386,E,1,10,0.8,18.4,M,39.4,M,,0000*63
[2018-05-11 03:53:23] $GPGSA,A,3,08,18,27,11,07,16,01,10,30,26,,,1.8,0.8,1.6*37
[2018-05-11 03:53:24] $GPGSV,3,1,12,08,64,321,47,18,51,199,44,27,49,041,47,11,40,232,43*73
[2018-05-11 03:53:24] $GPGSV,3,2,12,07,40,294,47,16,38,106,43,01,27,205,44,10,19,078,27*78
[2018-05-11 03:53:24] $GPGSV,3,3,12,30,19,315,42,26,13,120,30,20,00,035,12,22,02,172,*77
[2018-05-11 03:53:24] $GPRMC,055101.000,A,3540.0135,N,13947.5386,E,0.00,172.30,140518,,,A*65
[2018-05-11 03:53:24] $GPGGA,055102.000,3540.0135,N,13947.5386,E,1,10,0.8,18.4,M,39.4,M,,0000*60
[2018-05-11 03:53:24] $GPGSA,A,3,08,18,27,11,07,16,01,10,30,26,,,1.8,0.8,1.6*37
[2018-05-11 03:53:25] $GPRMC,055102.000,A,3540.0135,N,13947.5386,E,0.00,172.30,140518,,,A*66
[2018-05-11 03:53:25] $GPGGA,055103.000,3540.0135,N,13947.5386,E,1,10,0.8,18.4,M,39.4,M,,0000*61
[2018-05-11 03:53:25] $GPGSA,A,3,08,18,27,11,07,16,01,10,30,26,,,1.8,0.8,1.6*37
[2018-05-11 03:53:26] $GPRMC,055103.000,A,3540.0135,N,13947.5386,E,0.00,172.30,140518,,,A*67
[2018-05-11 03:53:26] $GPGGA,055104.000,3540.0135,N,13947.5386,E,1,10,0.8,18.4,M,39.4,M,,0000*66
[2018-05-11 03:53:26] $GPGSA,A,3,08,18,27,11,07,16,01,10,30,26,,,1.8,0.8,1.6*37
[2018-05-11 03:53:27] $GPRMC,055104.000,A,3540.0135,N,13947.5386,E,0.00,172.30,140518,,,A*60
[2018-05-11 03:53:27] $GPGGA,055105.000,3540.0135,N,13947.5386,E,1,10,0.8,18.4,M,39.4,M,,0000*67
[2018-05-11 03:53:27] $GPGSA,A,3,08,18,27,11,07,16,01,10,30,26,,,1.8,0.8,1.6*37
[2018-05-11 03:53:28] $GPRMC,055105.000,A,3540.0135,N,13947.5386,E,0.00,172.30,140518,,,A*61
[2018-05-11 03:53:28] $GPGGA,055106.000,3540.0135,N,13947.5386,E,1,10,0.8,18.4,M,39.4,M,,0000*64
[2018-05-11 03:53:28] $GPGSA,A,3,08,18,27,11,07,16,01,10,30,26,,,1.8,0.8,1.6*37
[2018-05-11 03:53:29] $GPGSV,3,1,12,08,64,321,47,18,51,199,44,27,49,041,47,11,40,232,43*73
[2018-05-11 03:53:29] $GPGSV,3,2,12,07,40,294,47,16,38,106,43,01,27,205,44,10,19,078,27*78
[2018-05-11 03:53:29] $GPGSV,3,3,12,30,19,315,42,26,13,120,30,22,02,172,,20,00,035,*74
[2018-05-11 03:53:29] $GPRMC,055106.000,A,3540.0135,N,13947.5386,E,0.00,172.30,140518,,,A*62
[2018-05-11 03:53:29] $GPGGA,055107.000,3540.0135,N,13947.5386,E,1,10,0.8,18.4,M,39.4,M,,0000*65
[2018-05-11 03:53:29] $GPGSA,A,3,08,18,27,11,07,16,01,10,30,26,,,1.8,0.8,1.6*37
[2018-05-11 03:53:30] $GPRMC,055107.000,A,3540.0135,N,13947.5386,E,0.00,172.30,140518,,,A*63
[2018-05-11 03:53:30] $GPGGA,055108.000,3540.0135,N,13947.5386,E,1,10,0.8,18.4,M,39.4,M,,0000*6A
[2018-05-11 03:53:30] $GPGSA,A,3,08,18,27,11,07,16,01,10,30,26,,,1.8,0.8,1.6*37
[2018-05-11 03:53:31] $GPRMC,055108.000,A,3540.0135,N,13947.5386,E,0.00,172.30,140518,,,A*6C
[2018-05-11 03:53:31] $GPGGA,055109.000,3540.0135,N,13947.5386,E,1,10,0.8,18.4,M,39.4,M,,0000*6B
[2018-05-11 03:53:31] $GPGSA,A,3,08,18,27,11,07,16,01,10,30,26,,,1.8,0.8,1.6*37
[2018-05-11 03:53:32] $GPRMC,055109.000,A,3540.0135,N,13947.5386,E,0.00,172.30,140518,,,A*6D
[2018-05-11 03:53:32] $GPGGA,055110.000,3540.0135,N,13947.5386,E,1,10,0.8,18.4,M,39.4,M,,0000*63
[2018-05-11 03:53:32] $GPGSA,A,3,08,18,27,11,07,16,01,10,30,26,,,1.8,0.8,1.6*37
[2018-05-11 03:53:33] $GPRMC,055110.000,A,3540.0135,N,13947.5386,E,0.00,172.30,140518,,,A*65
[2018-05-11 03:53:33] $GPGGA,055111.000,3540.0135,N,13947.5386,E,1,10,0.8,18.4,M,39.4,M,,0000*62
[2018-05-11 03:53:33] $GPGSA,A,3,08,18,27,11,07,16,01,10,30,26,,,1.8,0.8,1.6*37
[2018-05-11 03:53:34] $GPGSV,3,1,12,08,64,321,47,18,51,199,44,27,49,041,47,11,40,232,43*73
[2018-05-11 03:53:34] $GPGSV,3,2,12,07,40,294,47,16,38,106,43,01,27,205,44,10,19,078,27*78
[2018-05-11 03:53:34] $GPGSV,3,3,12,30,19,315,42,26,13,120,30,20,00,035,15,22,02,172,*70
[2018-05-11 03:53:34] $GPRMC,055111.000,A,3540.0135,N,13947.5386,E,0.00,172.30,140518,,,A*64
[2018-05-11 03:53:34] $GPGGA,055112.000,3540.0135,N,13947.5386,E,1,10,0.8,18.4,M,39.4,M,,0000*61
[2018-05-11 03:53:34] $GPGSA,A,3,08,18,27,11,07,16,01,10,30,26,,,1.8,0.8,1.6*37
[2018-05-11 03:53:35] $GPRMC,055112.000,A,3540.0135,N,13947.5386,E,0.00,172.30,140518,,,A*67
