[2018-05-11 03:50:03] !AIVDM,1,1,,B,16K2N?P001awhp`DHtka1`Nt08Av,0*03
[2018-05-11 03:50:03] !AIVDM,1,1,,B,36K2:g@00Bb0P5hDDAA=G0:t0001,0*5C
[2018-05-11 03:50:03] $GPGGA,120939.000,0000.0000,N,00000.0000,E,0,00,0.0,0.0,M,,,,0000*0E
[2018-05-11 03:50:03] $GPRMC,120939.000,V,0000.0000,N,00000.0000,E,000.0,000.0,280606,,,N*7C
[2018-05-11 03:50:03] !AIVDM,1,1,,A,36KJcMPPAmb0DTpDD9d0T0@t0Pw@,0*78
[2018-05-11 03:50:03] !AIVDM,1,1,,A,16K2je0Oh:awlhbDI=8G?38`0D6=,0*6E
[2018-05-11 03:50:03] !AIVDM,1,1,,B,16K8CwUP1Haws60DFvDUFgw02@BV,0*1F
[2018-05-11 03:50:03] $GPGGA,120940.000,0000.0000,N,00000.0000,E,0,00,0.0,0.0,M,,,,0000*00
[2018-05-11 03:50:03] !AIVDM,1,1,,A,16K2;J0000awiJ@DIQ5cmV:t00SB,0*32
[2018-05-11 03:50:03] $GPRMC,120940.000,V,0000.0000,N,00000.0000,E,000.0,000.0,280606,,,N*72
[2018-05-11 03:50:03] !AIVDM,1,1,,B,16K2?Kh01NawvdvDFW<mC49008Bl,0*26
[2018-05-11 03:50:03] !AIVDM,1,1,,A,16K2:s@02;b0IpfDCUb2IQu208C;,0*48
[2018-05-11 03:50:03] !AIVDM,1,1,,B,16K2;aP01iawR=>D@s@3SBs22L7p,0*13
[2018-05-11 03:50:03] $GPGGA,120941.000,0000.0000,N,00000.0000,E,0,00,0.0,0.0,M,,,,0000*01
[2018-05-11 03:50:03] !AIVDM,1,1,,A,16K2IvPOh>b1?4DDH5pAHAQ40D2l,0*7C
[2018-05-11 03:50:03] !AIVDM,1,1,,B,H6K2iOh@4V3G60p5L5<4@4l59D0,2*6A
[2018-05-11 03:50:03] !AIVDM,1,1,,A,16K2IS@001awHr>DAwVKTnI20D5u,0*3B
[2018-05-11 03:50:03] $GPRMC,120941.000,V,0000.0000,N,00000.0000,E,000.0,000.0,280606,,,N*73
[2018-05-11 03:50:03] !AIVDM,1,1,,A,16K2;Lh001awcJ:DDT2ImR5428Ci,0*42
[2018-05-11 03:50:03] !AIVDM,1,1,,B,16KPi<h0009wiL@DI7dHEc?00D0v,0*12
[2018-05-11 03:50:03] $GPGGA,120942.000,0000.0000,N,00000.0000,E,0,00,0.0,0.0,M,,,,0000*02
[2018-05-11 03:50:03] !AIVDM,1,1,,B,16K2;>@000awi4TDIGJ7i5a420Sh,0*36
[2018-05-11 03:50:03] $GPRMC,120942.000,V,0000.0000,N,00000.0000,E,000.0,000.0,280606,,,N*70
[2018-05-11 03:50:03] !AIVDM,1,1,,A,35AUJ60PA2awH3vDBHsJgH?62000,0*13
[2018-05-11 03:50:03] !AIVDM,1,1,,A,16K2>n@000awt76DHU@t`4U624bt,0*51
[2018-05-11 03:50:03] !AIVDM,1,1,,B,10rV;C@<@4qwwAJJa8h5vjpSW089,0*1D
[2018-05-11 03:50:03] $GPGGA,120943.000,0000.0000,N,00000.0000,E,0,00,0.0,0.0,M,,,,0000*03
[2018-05-11 03:50:03] !AIVDM,1,1,,A,16KJbT00019wiL8DIFC`AEe60<0k,0*2C
[2018-05-11 03:50:03] $GPRMC,120943.000,V,0000.0000,N,00000.0000,E,000.0,000.0,280606,,,N*71
[2018-05-11 03:50:03] !AIVDM,1,1,,B,16K8Dng000awhjRDI3a0v0w80L4s,0*37
[2018-05-11 03:50:03] $GPGGA,120944.000,0000.0000,N,00000.0000,E,0,00,0.0,0.0,M,,,,0000*04
[2018-05-11 03:50:03] !AIVDM,1,1,,A,13miWD0000awla8DCqvL3GQ604bt,0*5D
[2018-05-11 03:50:03] !AIVDM,1,1,,A,16K2>3P001awhltDI3E9F1782<5r,0*21
[2018-05-11 03:50:03] !AIVDM,1,1,,B,15RGLH0001:0U9:DJHlK1iQ82HE3,0*31
[2018-05-11 03:50:03] $GPRMC,120944.000,V,0000.0000,N,00000.0000,E,000.0,000.0,280606,,,N*76
[2018-05-11 03:50:03] !AIVDM,1,1,,B,36K2IvPOh>b1?4VDH5riIAU:0000,0*64
[2018-05-11 03:50:03] !AIVDM,1,1,,B,16K2<EwP1BawuHFDFQLlj?w:2<7:,0*73
[2018-05-11 03:50:03] !AIVDM,1,1,,B,16K2Ne002gawUW>D@dS`Ing400S6,0*4D
[2018-05-11 03:50:03] !AIVDM,1,1,,B,16K2;J@000awiPlDISN;cPO40<42,0*70
[2018-05-11 03:50:03] !AIVDM,2,1,1,B,58II<402<qcu?HQGB2050j0`D@@4R22222222216GhA:C5FVeGRT856Cp888,0*64
[2018-05-11 03:50:03] !AIVDM,2,2,1,B,88888888880,2*26
[2018-05-11 03:50:03] $GPGGA,120945.000,0000.0000,N,00000.0000,E,0,00,0.0,0.0,M,,,,0000*05
[2018-05-11 03:50:03] !AIVDM,1,1,,A,16K2<Gh000awhPNDHtarF`C:0HET,0*46
[2018-05-11 03:50:03] !AIVDM,1,1,,A,16K2>>@01AawluHDGlFn5Dk:2<6W,0*17
[2018-05-11 03:50:03] $GPRMC,120945.000,V,0000.0000,N,00000.0000,E,000.0,000.0,280606,,,N*77
[2018-05-11 03:50:03] !AIVDM,1,1,,B,177C78002@awkGpDAlbSB2c80@F7,0*12
[2018-05-11 03:50:03] $GPGGA,120946.000,0000.0000,N,00000.0000,E,0,00,0.0,0.0,M,,,,0000*06
[2018-05-11 03:50:03] !AIVDM,1,1,,A,18Infd0vArb0DVLDD:UPKh;:0P00,0*0E
[2018-05-11 03:50:03] $GPRMC,120946.000,V,0000.0000,N,00000.0000,E,000.0,000.0,280606,,,N*74
[2018-05-11 03:50:03] !AIVDM,1,1,,A,18Infd0viJb0>fTDEUm;uaO>0D5q,0*66
[2018-05-11 03:50:03] !AIVDM,1,1,,A,16K8DA@001awi<FDIG0q``c<2D5;,0*0F
[2018-05-11 03:50:03] !AIVDM,1,1,,B,16K2QwP001awi7<DIGIcUUa>24bt,0*47
[2018-05-11 03:50:03] !AIVDM,1,1,,A,16K2Ja@000awiIBDDu=lrbQ>00S6,0*49
[2018-05-11 03:50:03] $GPGGA,120947.000,0000.0000,N,00000.0000,E,0,00,0.0,0.0,M,,,,0000*07
[2018-05-11 03:50:03] !AIVDM,1,1,,B,35AUJ60PA09wGwhDBI5bhH9>2140,0*74
[2018-05-11 03:50:03] !AIVDM,1,1,,A,36K2je0P@8awlhNDI=4Wck8l00i@,0*37
[2018-05-11 03:50:03] !AIVDM,1,1,,B,16K2PfP001awi:vDIJcG85i>0<59,0*06
[2018-05-11 03:50:03] $GPRMC,120947.000,V,0000.0000,N,00000.0000,E,000.0,000.0,280606,,,N*75
[2018-05-11 03:50:03] !AIVDM,1,1,,A,16K2kS@000awi9FDIIMbpmo<24bt,0*25
[2018-05-11 03:50:03] $GPGGA,120948.000,0000.0000,N,00000.0000,E,0,00,0.0,0.0,M,,,,0000*08
[2018-05-11 03:50:03] !AIVDM,1,1,,A,16K2N?P001awhpTDHtka1`O>00S9,0*2A
[2018-05-11 03:50:03] !AIVDM,2,1,2,A,56KJbT02<OdD`gGGOB1@4U`4pl59F2222222221680<575GU0:gRT82lkH3U,0*06
[2018-05-11 03:50:03] !AIVDM,2,2,2,A,p8888888880,2*6E
[2018-05-11 03:50:03] !AIVDM,1,1,,A,404757iv9G5gW9wLcrDAl>700<70,0*0F
[2018-05-11 03:50:03] $GPRMC,120948.000,V,0000.0000,N,00000.0000,E,000.0,000.0,280606,,,N*7A
[2018-05-11 03:50:03] !AIVDM,1,1,,B,16KPj9h02<b0A3tDCv;q<GE>08Ge,0*79
[2018-05-11 03:50:03] !AIVDM,1,1,,B,16K2:DP001awCg>DB;fs19Il0`Gm,0*37
[2018-05-11 03:50:03] $GPGGA,120949.000,0000.0000,N,00000.0000,E,0,00,0.0,0.0,M,,,,0000*09
[2018-05-11 03:50:03] $GPRMC,120949.000,V,0000.0000,N,00000.0000,E,000.0,000.0,280606,,,N*7B
[2018-05-11 03:50:03] !AIVDM,1,1,,B,36LbUF5000b0qT4DCE2=eSq@0000,0*11
[2018-05-11 03:50:04] !AIVDM,1,1,,B,36KJcMPPAmb0DW4DD:vPH@;@0Pw0,0*1E
[2018-05-11 03:50:04] !AIVDM,1,1,,B,16Kw:AP01HawSl4D@dD8=6SD2@HA,0*1A
[2018-05-11 03:50:04] !AIVDM,1,1,,A,56O2AsT@0;b00q8DFV2U:4;D20S@,0*0D
[2018-05-11 03:50:04] !AIVDM,1,1,,A,35AUJ60PA0awGu<DBI7re`5D20ri,0*26
[2018-05-11 03:50:04] $GPGGA,120950.000,0000.0000,N,00000.0000,E,0,00,0.0,0.0,M,,,,0000*01
[2018-05-11 03:50:04] $GPRMC,120950.000,V,0000.0000,N,00000.0000,E,000.0,000.0,280606,,,N*73
[2018-05-11 03:50:05] !AIVDM,1,1,,B,16K2;J0000awiJ@DIQ5cmV;B04bt,0*05
[2018-05-11 03:50:05] !AIVDM,1,1,,B,16K2je0P@8awlh@DI=2WwS2t0@Hn,0*7F
[2018-05-11 03:50:05] !AIVDM,1,1,,A,16K2;aP01jawRIDD@s>CTRuF20T>,0*27
[2018-05-11 03:50:05] !AIVDM,1,1,,A,16K8CwUP1Haws<tDFuREKgwF2@Hu,0*05
[2018-05-11 03:50:05] $GPGGA,120951.000,0000.0000,N,00000.0000,E,0,00,0.0,0.0,M,,,,0000*00
[2018-05-11 03:50:05] !AIVDM,1,1,,B,36K2IvPOh@b1?5DDH61QFAcH011i,0*63
[2018-05-11 03:50:05] $GPRMC,120951.000,V,0000.0000,N,00000.0000,E,000.0,000.0,280606,,,N*72
[2018-05-11 03:50:06] !AIVDM,1,1,,A,16K8DkPP04awMhHDCdh@@?wF00Ru,0*20
[2018-05-11 03:50:06] $GPGGA,120952.000,0000.0000,N,00000.0000,E,0,00,0.0,0.0,M,,,,0000*03
[2018-05-11 03:50:06] !AIVDM,1,1,,B,16K2?h001Nb0jcFDCs<iF15H08Im,0*69
[2018-05-11 03:50:06] $GPRMC,120952.000,V,0000.0000,N,00000.0000,E,000.0,000.0,280606,,,N*71
[2018-05-11 03:50:06] !AIVDM,1,1,,A,36K2je0P@8awlh:DI=1p=S10026P,0*1F
[2018-05-11 03:50:07] !AIVDM,1,1,,A,16KPi<h0009wiLHDI7b`Hc?F0HJ9,0*75
[2018-05-11 03:50:07] !AIVDM,1,1,,B,16K2HFh004b0S3:DJASI>ICJ0HJ>,0*26
[2018-05-11 03:50:07] $GPGGA,120953.000,0000.0000,N,00000.0000,E,0,00,0.0,0.0,M,,,,0000*02
[2018-05-11 03:50:07] !AIVDM,1,1,,B,16K2>n@000awt6fDHU?t`4UJ2@J@,0*68
[2018-05-11 03:50:07] !AIVDM,1,1,,A,16K2:s@02;b0J8JDCVPRK1uJ0@JD,0*6A
[2018-05-11 03:50:07] !AIVDM,2,1,3,A,55RTPD42BUEo<EUCV20P5T5@F222222222222216=0?6@5G80=2T82nUH3iQ,0*24
[2018-05-11 03:50:07] !AIVDM,2,2,3,A,`8888888880,2*7F
[2018-05-11 03:50:07] $GPRMC,120953.000,V,0000.0000,N,00000.0000,E,000.0,000.0,280606,,,N*70
[2018-05-11 03:50:07] !AIVDM,1,1,,B,36K2fg@OiKaw`;2DCsh9GGOH01Mh,0*0C
[2018-05-11 03:50:08] !AIVDM,1,1,,A,16K2;>@000awi4TDIGJ7nUaL20RT,0*17
[2018-05-11 03:50:08] !AIVDM,1,1,,B,36K8AB1000b00T@DI=3BKjeH2Dh:,0*4E
[2018-05-11 03:50:08] !AIVDM,1,1,,B,16KPj2hP@5aweC@DD?rlIi7L0<6E,0*59
[2018-05-11 03:50:08] !AIVDM,1,1,,A,36K2fg@OiKaw`;2DCsh9GGOH00rP,0*09
[2018-05-11 03:50:08] !AIVDM,1,1,,B,16K2>3P001awhltDI3E9FQ7L2HJk,0*24
[2018-05-11 03:50:08] $GPGGA,120954.000,0000.0000,N,00000.0000,E,0,00,0.0,0.0,M,,,,0000*05
[2018-05-11 03:50:08] !AIVDM,1,1,,A,15RGLH0000:0U9:DJHlK1iQJ2<3N,0*3E
[2018-05-11 03:50:08] !AIVDM,1,1,,A,16K2<EwP1BawuOlDFPvTigwL20SG,0*66
[2018-05-11 03:50:08] !AIVDM,1,1,,B,35AUJ60PA1awGr`DBI8rcp1L2000,0*71
[2018-05-11 03:50:08] $GPRMC,120954.000,V,0000.0000,N,00000.0000,E,000.0,000.0,280606,,,N*77
[2018-05-11 03:50:08] !AIVDM,1,1,,A,16KPj9h02=b0@ujDCuh9:GEH00SP,0*63
[2018-05-11 03:50:09] !AIVDM,1,1,,B,16KJbT00019wiL8DIFC`AEeJ04bt,0*16
[2018-05-11 03:50:09] !AIVDM,2,1,4,A,56K2;Lh2@EpD`C;GC20pvsF0tuaDl59F2222221@7`<395G;08gRT82mlp4i,0*7E
[2018-05-11 03:50:09] !AIVDM,2,2,4,A,p=H88888880,2*1D
[2018-05-11 03:50:09] !AIVDM,1,1,,B,16K2<Gh000awhPLDHtarG8CN04bt,0*11
[2018-05-11 03:50:09] $GPGGA,120955.000,0000.0000,N,00000.0000,E,0,00,0.0,0.0,M,,,,0000*04
[2018-05-11 03:50:09] !AIVDM,1,1,,A,16K2;J@000awiPlDISN;cPML0D43,0*70
[2018-05-11 03:50:09] !AIVDM,1,1,,B,16K2:b@01qb0j<tDCw1iGQ5N04bt,0*14
[2018-05-11 03:50:09] $GPRMC,120955.000,V,0000.0000,N,00000.0000,E,000.0,000.0,280606,,,N*76
[2018-05-11 03:50:10] !AIVDM,1,1,,A,16K2dv001tb0BNfDDHOIU7WL2@Kg,0*5E
[2018-05-11 03:50:10] !AIVDM,1,1,,A,16K2:bP01nb01IjDBfKa7WCP20RV,0*40
[2018-05-11 03:50:10] !AIVDM,1,1,,B,18Infd001Jb0>VnDEVIstqOR0L5j,0*70
[2018-05-11 03:50:10] $GPGGA,120956.000,0000.0000,N,00000.0000,E,0,00,0.0,0.0,M,,,,0000*07
[2018-05-11 03:50:10] !AIVDM,1,1,,A,14Rbj801REb02S0DD2QQbiEN2@L7,0*6F
[2018-05-11 03:50:10] $GPRMC,120956.000,V,0000.0000,N,00000.0000,E,000.0,000.0,280606,,,N*75
[2018-05-11 03:50:10] !AIVDM,1,1,,B,16KDRv@01ib0V=rDD@1rG`CP00S6,0*38
[2018-05-11 03:50:11] !AIVDM,1,1,,B,16K2kS@001awi9HDIIMt35qN2HLH,0*26
[2018-05-11 03:50:11] !AIVDM,1,1,,B,16K2>>@OiBawm1JDGkMn84oR2D6W,0*12
[2018-05-11 03:50:11] !AIVDM,1,1,,B,15AAA2001kb0b58DF@ka7oET04bt,0*26
[2018-05-11 03:50:11] $GPGGA,120957.000,0000.0000,N,00000.0000,E,0,00,0.0,0.0,M,,,,0000*06
[2018-05-11 03:50:11] !AIVDM,1,1,,B,16K2Ja@000awiIFDDu>DrbQR08Lg,0*4F
[2018-05-11 03:50:11] !AIVDM,1,1,,A,16K2QwP000awi76DIGJ;HmaR2L5=,0*3B
[2018-05-11 03:50:11] $GPRMC,120957.000,V,0000.0000,N,00000.0000,E,000.0,000.0,280606,,,N*74
[2018-05-11 03:50:12] !AIVDM,1,1,,B,16K2N?P000awhpNDHtkq1`OP0D4M,0*2B
[2018-05-11 03:50:12] !AIVDM,1,1,,B,36K2je0007awlh0DI=0HIC1800f0,0*6E
[2018-05-11 03:50:12] !AIVDM,1,1,,A,16K2PfP001awi:rDIJcW85kT0D59,0*01
[2018-05-11 03:50:12] !AIVDM,1,1,,B,177C78002@awkbDDAlo3B2cN0D4B,0*1B
[2018-05-11 03:50:12] $GPGGA,120958.000,0000.0000,N,00000.0000,E,0,00,0.0,0.0,M,,,,0000*09
[2018-05-11 03:50:12] !AIVDM,1,1,,B,404757iv9G5gi9wLcrDAl>7000S:,0*50
[2018-05-11 03:50:12] !AIVDM,1,1,,B,4047581v9G5gi:0IUhDHEQW00@ME,0*54
[2018-05-11 03:50:12] $GPRMC,120958.000,V,0000.0000,N,00000.0000,E,000.0,000.0,280606,,,N*7B
[2018-05-11 03:50:12] !AIVDM,1,1,,A,16Kw:AP01HawSgnD@cTH<FST20Rm,0*08
[2018-05-11 03:50:12] !AIVDM,1,1,,B,16K2:s@02;b0J>tDCVo2KAuT08MJ,0*11
[2018-05-11 03:50:13] $GPGGA,120959.000,0000.0000,N,00000.0000,E,0,00,0.0,0.0,M,,,,0000*08
[2018-05-11 03:50:13] $GPRMC,120959.000,V,0000.0000,N,00000.0000,E,000.0,000.0,280606,,,N*7A
[2018-05-11 03:50:14] !AIVDM,1,1,,A,16K2je0Oh7awlglDI<vpHk5@0D6;,0*1E
[2018-05-11 03:50:14] $GPGGA,121000.000,0000.0000,N,00000.0000,E,0,00,0.0,0.0,M,,,,0000*0C
[2018-05-11 03:50:14] $GPRMC,121000.000,V,0000.0000,N,00000.0000,E,000.0,000.0,280606,,,N*7E
[2018-05-11 03:50:14] !AIVDM,1,1,,B,16K2?Kh01NawvslDFUiU>D;b04bt,0*2D
[2018-05-11 03:50:15] !AIVDM,1,1,,A,16K2;J0000awiJ@DIQ5cmV;V0<2D,0*7A
[2018-05-11 03:50:15] $GPGGA,121001.000,0000.0000,N,00000.0000,E,0,00,0.0,0.0,M,,,,0000*0D
[2018-05-11 03:50:15] $GPRMC,121001.000,V,0000.0000,N,00000.0000,E,000.0,000.0,280606,,,N*7F
[2018-05-11 03:50:15] !AIVDM,1,1,,B,16KPi<h0009wiLLDI7``Js?`0D0v,0*7D
[2018-05-11 03:50:16] $GPGGA,121002.000,0000.0000,N,00000.0000,E,0,00,0.0,0.0,M,,,,0000*0E
[2018-05-11 03:50:16] $GPRMC,121002.000,V,0000.0000,N,00000.0000,E,000.0,000.0,280606,,,N*7C
[2018-05-11 03:50:16] !AIVDM,1,1,,B,36K2je0Oh6awlgjDI<v8=k9D02<P,0*3A
[2018-05-11 03:50:16] !AIVDM,1,1,,B,15RGLH0000:0U98DJHlK1iQf24bt,0*70
[2018-05-11 03:50:17] !AIVDM,1,1,,B,16K8Dng001awhjnDI3V@v0wf0L4s,0*13
[2018-05-11 03:50:17] !AIVDM,1,1,,A,16K2>n@000awt6jDHU>t`4Uf24bt,0*22
[2018-05-11 03:50:17] !AIVDM,1,1,,B,B6K2F9@06JP2c<55sdrq;wsUWP06,0*19
[2018-05-11 03:50:17] $GPGGA,121003.000,0000.0000,N,00000.0000,E,0,00,0.0,0.0,M,,,,0000*0F
[2018-05-11 03:50:17] !AIVDM,1,1,,A,16KJbT00019wiL8DIFC`AEef0D0k,0*04
[2018-05-11 03:50:17] $GPRMC,121003.000,V,0000.0000,N,00000.0000,E,000.0,000.0,280606,,,N*7D
[2018-05-11 03:50:17] !AIVDM,1,1,,B,16K2INh01kb0C3fDDqapRnkf28PC,0*52
[2018-05-11 03:50:17] !AIVDM,1,1,,A,16K2<Gh000awhPNDHtarG8Ch08PF,0*3A
[2018-05-11 03:50:18] !AIVDM,1,1,,B,16K2;>@000awi4RDIGIWhmah20RB,0*7D
[2018-05-11 03:50:18] !AIVDM,1,1,,A,16K2>3P001awhlvDI3DaHi7h2@Pa,0*76
[2018-05-11 03:50:18] $GPGGA,121004.000,0000.0000,N,00000.0000,E,0,00,0.0,0.0,M,,,,0000*08
[2018-05-11 03:50:18] !AIVDM,1,1,,B,16K2;J@000awiPlDISN;cPMb0HPh,0*6E
[2018-05-11 03:50:18] !AIVDM,1,1,,B,B6K2J0P01JOuLp56ElKHQiL5WP06,0*26
[2018-05-11 03:50:18] $GPRMC,121004.000,V,0000.0000,N,00000.0000,E,000.0,000.0,280606,,,N*7A
[2018-05-11 03:50:18] !AIVDM,1,1,,A,35Rh6P5000awpuHDHFm;E:?d0000,0*1A
[2018-05-11 03:50:19] !AIVDM,2,1,5,B,56KPiVh2=Ro8`kKKSR1<QE8V22222222222222165QsC55Gf0@?RT83lhH1c,0*05
[2018-05-11 03:50:19] !AIVDM,2,2,5,B,Mp888888880,2*1F
[2018-05-11 03:50:19] $GPGGA,121005.000,0000.0000,N,00000.0000,E,0,00,0.0,0.0,M,,,,0000*09
[2018-05-11 03:50:19] $GPRMC,121005.000,V,0000.0000,N,00000.0000,E,000.0,000.0,280606,,,N*7B
[2018-05-11 03:50:19] !AIVDM,1,1,,A,16K2>>@01Bawm4PDGjfV;4oj20Sk,0*2D
[2018-05-11 03:50:19] !AIVDM,1,1,,A,18Infd001Jb0>OlDEVrKt9On0D5j,0*17
[2018-05-11 03:50:20] !AIVDM,1,1,,B,B6Lh@`000JOu26U6NEVIgwtUWP06,0*56
[2018-05-11 03:50:20] $GPGGA,121006.000,0000.0000,N,00000.0000,E,0,00,0.0,0.0,M,,,,0000*0A
[2018-05-11 03:50:20] !AIVDM,1,1,,B,16K2PfP001awi:nDIJco85ml0@Qq,0*30
[2018-05-11 03:50:20] !AIVDM,1,1,,B,16K2QwP001awi74DIGJcSEal20S8,0*71
[2018-05-11 03:50:20] $GPRMC,121006.000,V,0000.0000,N,00000.0000,E,000.0,000.0,280606,,,N*78
[2018-05-11 03:50:21] !AIVDM,1,1,,A,36K2je0Oh6awlgjDI<u7f3=L00vP,0*72
[2018-05-11 03:50:21] !AIVDM,1,1,,A,16K8DA@000awi<HDIG19Upcn2HRK,0*25
[2018-05-11 03:50:21] $GPGGA,121007.000,0000.0000,N,00000.0000,E,0,00,0.0,0.0,M,,,,0000*0B
[2018-05-11 03:50:21] $GPRMC,121007.000,V,0000.0000,N,00000.0000,E,000.0,000.0,280606,,,N*79
[2018-05-11 03:50:22] !AIVDM,1,1,,A,16K2N?P001awhpBDHtlI1`Ol00Sa,0*19
[2018-05-11 03:50:22] !AIVDM,1,1,,A,16K2kS@000awi9FDIIMuHmqn2@S0,0*47
[2018-05-11 03:50:22] $GPGGA,121008.000,0000.0000,N,00000.0000,E,0,00,0.0,0.0,M,,,,0000*04
[2018-05-11 03:50:22] !AIVDM,1,1,,A,4047581v9G5gs:0IUhDHEQW00<5H,0*44
[2018-05-11 03:50:22] $GPRMC,121008.000,V,0000.0000,N,00000.0000,E,000.0,000.0,280606,,,N*76
[2018-05-11 03:50:23] $GPGGA,121009.000,0000.0000,N,00000.0000,E,0,00,0.0,0.0,M,,,,0000*05
[2018-05-11 03:50:23] !AIVDM,1,1,,A,16K2NIP01vb01<>DFTBE8D62280S,0*59
[2018-05-11 03:50:23] $GPRMC,121009.000,V,0000.0000,N,00000.0000,E,000.0,000.0,280606,,,N*77
[2018-05-11 03:50:24] !AIVDM,1,1,,B,16K2je0Oh5awlgfDI<sWSC?T0<6;,0*62
[2018-05-11 03:50:24] $GPGGA,121010.000,0000.0000,N,00000.0000,E,0,00,0.0,0.0,M,,,,0000*0D
[2018-05-11 03:50:24] !AIVDM,1,1,,B,16K2;J0000awiJ@DIQ5cmV:00D2D,0*66
[2018-05-11 03:50:24] $GPRMC,121010.000,V,0000.0000,N,00000.0000,E,000.0,000.0,280606,,,N*7F
[2018-05-11 03:50:25] $GPGGA,121011.000,0000.0000,N,00000.0000,E,0,00,0.0,0.0,M,,,,0000*0C
[2018-05-11 03:50:25] $GPRMC,121011.000,V,0000.0000,N,00000.0000,E,000.0,000.0,280606,,,N*7E
[2018-05-11 03:50:25] !AIVDM,1,1,,A,16K2?Kh01Naww42DFU05=l660D7k,0*47
[2018-05-11 03:50:26] $GPGGA,121012.000,0000.0000,N,00000.0000,E,0,00,0.0,0.0,M,,,,0000*0F
[2018-05-11 03:50:26] $GPRMC,121012.000,V,0000.0000,N,00000.0000,E,000.0,000.0,280606,,,N*7D
[2018-05-11 03:50:26] !AIVDM,1,1,,B,36KJVjm000b04t>DHOwrrUL00DW:,0*68
[2018-05-11 03:50:27] !AIVDM,1,1,,A,16K2;>@001awi4RDIGIp1E`:24c0,0*3D
[2018-05-11 03:50:27] !AIVDM,1,1,,A,16KPi<h0009wiLNDI7`pHK>600R`,0*01
[2018-05-11 03:50:27] $GPGGA,121013.000,0000.0000,N,00000.0000,E,0,00,0.0,0.0,M,,,,0000*0E
[2018-05-11 03:50:27] !AIVDM,1,1,,B,16K2>n@000awt6jDHU?L`4T:20S<,0*38
[2018-05-11 03:50:27] $GPRMC,121013.000,V,0000.0000,N,00000.0000,E,000.0,000.0,280606,,,N*7C
[2018-05-11 03:50:27] !AIVDM,1,1,,A,36K2je0P@5awlgbDI<s7Wk=`01jP,0*10
[2018-05-11 03:50:28] !AIVDM,1,1,,B,16K2<Gh000awhPNDHtarF`B<0H37,0*57
[2018-05-11 03:50:28] !AIVDM,2,1,6,A,56K2<Gh00000`gG?K21<TpduF0l59F22222222005@:3:5GCN5?RT82nUH88,0*68
[2018-05-11 03:50:28] !AIVDM,2,2,6,A,88888888880,2*22
[2018-05-11 03:50:28] $GPGGA,121014.000,0000.0000,N,00000.0000,E,0,00,0.0,0.0,M,,,,0000*09
[2018-05-11 03:50:28] !AIVDM,1,1,,B,36K2je0P@5awlg`DI<rWaC=d0000,0*51
[2018-05-11 03:50:28] $GPRMC,121014.000,V,0000.0000,N,00000.0000,E,000.0,000.0,280606,,,N*7B
[2018-05-11 03:50:28] !AIVDM,1,1,,A,39NSDGQ001b0Nn0DDwK83DR40000,0*05
[2018-05-11 03:50:28] !AIVDM,1,1,,B,16K2>3P000awhm0DI3DqQQ4>283b,0*4F
[2018-05-11 03:50:29] !AIVDM,1,1,,B,16KJbT00019wiL8DIFC`AEd:00Rv,0*51
[2018-05-11 03:50:29] $GPGGA,121015.000,0000.0000,N,00000.0000,E,0,00,0.0,0.0,M,,,,0000*08
[2018-05-11 03:50:29] $GPRMC,121015.000,V,0000.0000,N,00000.0000,E,000.0,000.0,280606,,,N*7A
[2018-05-11 03:50:30] !AIVDM,1,1,,A,16K2;J@000awiPlDISN;cPN<04c0,0*27
[2018-05-11 03:50:30] $GPGGA,121016.000,0000.0000,N,00000.0000,E,0,00,0.0,0.0,M,,,,0000*0B
[2018-05-11 03:50:30] !AIVDM,1,1,,A,16K2PfP001awi:pDIJco85l@0L57,0*2E
[2018-05-11 03:50:30] !AIVDM,1,1,,B,16K2kS@000awi9FDIIN9p5n>20Su,0*11
[2018-05-11 03:50:30] $GPRMC,121016.000,V,0000.0000,N,00000.0000,E,000.0,000.0,280606,,,N*79
[2018-05-11 03:50:31] !AIVDM,1,1,,B,18Infd0viJb0>F`DEWVsu9NF04c0,0*46
[2018-05-11 03:50:31] !AIVDM,1,1,,B,16K2>>@01Bawm8`DGif67llB2853,0*38
[2018-05-11 03:50:31] $GPGGA,121017.000,0000.0000,N,00000.0000,E,0,00,0.0,0.0,M,,,,0000*0A
[2018-05-11 03:50:31] !AIVDM,1,1,,A,36K2QwP001awi74DIGJsWU`B265S,0*50
[2018-05-11 03:50:31] !AIVDM,1,1,,B,16K8DA@001awi<JDIG19V`bB20Rb,0*4A
[2018-05-11 03:50:31] $GPRMC,121017.000,V,0000.0000,N,00000.0000,E,000.0,000.0,280606,,,N*78
[2018-05-11 03:50:31] !AIVDM,1,1,,B,36K2je0P@4awlgTDI<r7pk9h00n@,0*1B
[2018-05-11 03:50:32] !AIVDM,2,1,7,A,56KF;042E2ggLaIJ221<PTqTv0l59F222222221J4HM665750;RT856Cp288,0*4E
[2018-05-11 03:50:32] !AIVDM,2,2,7,A,88888888880,2*23
[2018-05-11 03:50:32] !AIVDM,1,1,,B,16K2N?P001awhp:DHtl91`NB04c0,0*58
[2018-05-11 03:50:32] $GPGGA,121018.000,0000.0000,N,00000.0000,E,0,00,0.0,0.0,M,,,,0000*05
[2018-05-11 03:50:32] !AIVDM,1,1,,B,36KEH>5000awjl@DGuEbc:@DPP00,0*01
[2018-05-11 03:50:32] !AIVDM,1,1,,B,4047581v9G5h9:0IUhDHEQW00<5P,0*1A
[2018-05-11 03:50:32] $GPRMC,121018.000,V,0000.0000,N,00000.0000,E,000.0,000.0,280606,,,N*77
[2018-05-11 03:50:33] !AIVDM,1,1,,B,36K2:g@OhQb0P3TDDBL=w0hF010i,0*55
[2018-05-11 03:50:33] $GPGGA,121019.000,0000.0000,N,00000.0000,E,0,00,0.0,0.0,M,,,,0000*04
[2018-05-11 03:50:33] $GPRMC,121019.000,V,0000.0000,N,00000.0000,E,000.0,000.0,280606,,,N*76
[2018-05-11 03:50:34] !AIVDM,1,1,,A,16K2je0P@3awlgRDI<q`4k9l04c0,0*76
[2018-05-11 03:50:34] $GPGGA,121020.000,0000.0000,N,00000.0000,E,0,00,0.0,0.0,M,,,,0000*0E
[2018-05-11 03:50:34] $GPRMC,121020.000,V,0000.0000,N,00000.0000,E,000.0,000.0,280606,,,N*7C
[2018-05-11 03:50:34] !AIVDM,1,1,,A,16K2;J0000awiJ@DIQ5cmV:D0878,0*14
[2018-05-11 03:50:35] !AIVDM,1,1,,B,16K2?Kh01Oaww;BDFTC5<46J0<7l,0*12
[2018-05-11 03:50:35] $GPGGA,121021.000,0000.0000,N,00000.0000,E,0,00,0.0,0.0,M,,,,0000*0F
[2018-05-11 03:50:35] $GPRMC,121021.000,V,0000.0000,N,00000.0000,E,000.0,000.0,280606,,,N*7D
[2018-05-11 03:50:36] !AIVDM,1,1,,B,177C78002@awl@LDAm@3B2bH0<4C,0*66
[2018-05-11 03:50:36] $GPGGA,121022.000,0000.0000,N,00000.0000,E,0,00,0.0,0.0,M,,,,0000*0C
[2018-05-11 03:50:36] !AIVDM,1,1,,B,16KPi<h0019wiLNDI7aHJs>H0<0v,0*06
[2018-05-11 03:50:36] !AIVDM,1,1,,B,16K8Dng000awhjVDI3`0v0vL00Sp,0*5F
[2018-05-11 03:50:36] $GPRMC,121022.000,V,0000.0000,N,00000.0000,E,000.0,000.0,280606,,,N*7E
[2018-05-11 03:50:36] !AIVDM,1,1,,B,16K2;>@001awi4PDIGIpNU`N24c0,0*27
[2018-05-11 03:50:37] !AIVDM,1,1,,A,16K2>n@000awt6vDHU@L`4TN24c0,0*14
[2018-05-11 03:50:37] !AIVDM,1,1,,A,16KJbT00019wiL8DIFC`AEdN04c0,0*55
[2018-05-11 03:50:37] $GPGGA,121023.000,0000.0000,N,00000.0000,E,0,00,0.0,0.0,M,,,,0000*0D
[2018-05-11 03:50:37] !AIVDM,1,1,,B,15RGLH0001:0U92DJHks1iPP2<3M,0*13
[2018-05-11 03:50:37] !AIVDM,1,1,,B,36K2je0P@3awlgJDI<pp;344025P,0*4C
[2018-05-11 03:50:37] $GPRMC,121023.000,V,0000.0000,N,00000.0000,E,000.0,000.0,280606,,,N*7F
[2018-05-11 03:50:38] !AIVDM,1,1,,A,38II<45000awok4DGvCpwJ>F0000,0*05
[2018-05-11 03:50:38] !AIVDM,1,1,,A,16K2<Gh000awhPPDHtaJEp@P00T1,0*16
[2018-05-11 03:50:38] $GPGGA,054816.000,3540.0135,N,13947.5385,E,1,10,0.8,18.3,M,39.4,M,,0000*69
[2018-05-11 03:50:38] !AIVDM,1,1,,B,16K2;J@000awiPlDISN;cPNL0H9C,0*01
[2018-05-11 03:50:39] $GPGGA,054817.000,3540.0135,N,13947.5385,E,1,10,0.8,18.3,M,39.4,M,,0000*68
[2018-05-11 03:50:39] !AIVDM,1,1,,A,16K2>3P001awhm6DI3Dq>A4R2L5r,0*3A
[2018-05-11 03:50:39] $GPRMC,054816.000,A,3540.0135,N,13947.5385,E,0.00,172.30,140518,,,A*68
[2018-05-11 03:50:40] !AIVDM,1,1,,A,36K2je0P@3awlgHDI<p8KS2<01=P,0*10
[2018-05-11 03:50:40] !AIVDM,1,1,,A,18Infd0viJb0>?dDE`8;uIN`00Rd,0*1E
[2018-05-11 03:50:40] $GPGGA,054818.000,3540.0135,N,13947.5385,E,1,10,0.8,18.3,M,39.4,M,,0000*67
[2018-05-11 03:50:40] !AIVDM,1,1,,A,16K2Ja@000awiIDDDu>DrbPT00SG,0*7E
[2018-05-11 03:50:40] !AIVDM,1,1,,A,16K2>>@01Bawm;jDGhvV5llT20RN,0*45
[2018-05-11 03:50:40] $GPRMC,054817.000,A,3540.0135,N,13947.5385,E,0.00,172.30,140518,,,A*69
[2018-05-11 03:50:41] !AIVDM,1,1,,A,16K8DA@001awi<NDIG1qi`bV2<5:,0*1D
[2018-05-11 03:50:41] !AIVDM,1,1,,B,16K2QwP000awi76DIGJclm`V2D5;,0*4F
[2018-05-11 03:50:41] !AIVDM,1,1,,A,16K2kS@000awi98DIIP`S5nT2<5g,0*1A
[2018-05-11 03:50:42] !AIVDM,1,1,,B,16K2PfP001awi:tDIJc785j`04c0,0*7E
[2018-05-11 03:50:42] $GPGGA,054820.000,3540.0135,N,13947.5385,E,1,10,0.8,18.3,M,39.4,M,,0000*6C
[2018-05-11 03:50:42] !AIVDM,1,1,,A,4047581v9G5hC:0IUhDHEQW00@;h,0*29
[2018-05-11 03:50:42] $GPRMC,054819.000,A,3540.0135,N,13947.5385,E,0.00,172.30,140518,,,A*67
[2018-05-11 03:50:43] $GPGGA,054821.000,3540.0135,N,13947.5385,E,1,10,0.8,18.3,M,39.4,M,,0000*6D
[2018-05-11 03:50:43] !AIVDM,1,1,,A,16K2N?P001awhp:DHtka1`N`08<B,0*07
[2018-05-11 03:50:43] $GPRMC,054820.000,A,3540.0135,N,13947.5385,E,0.00,172.30,140518,,,A*6D
[2018-05-11 03:50:44] !AIVDM,1,1,,B,16K2;J0000awiJ@DIQ5cmV:R08<N,0*7C
[2018-05-11 03:50:44] $GPGGA,054822.000,3540.0135,N,13947.5385,E,1,10,0.8,18.3,M,39.4,M,,0000*6E
[2018-05-11 03:50:44] !AIVDM,1,1,,B,16K2je0002awlgJDI<o8:34D0L6<,0*68
[2018-05-11 03:50:45] !AIVDM,1,1,,A,36K2=G@0009wprpDDvq2F9Rd00v0,0*56
[2018-05-11 03:50:45] $GPGGA,054823.000,3540.0135,N,13947.5385,E,1,10,0.8,18.3,M,39.4,M,,0000*6F
[2018-05-11 03:50:45] !AIVDM,1,1,,A,B6K2F9@06:P2aRU5sj6lkwcUWP06,0*71
[2018-05-11 03:50:45] $GPRMC,054822.000,A,3540.0135,N,13947.5385,E,0.00,172.30,140518,,,A*6F
[2018-05-11 03:50:46] !AIVDM,1,1,,B,16K2>n@000awt7:DHUA<`4Th28=`,0*0F
[2018-05-11 03:50:46] !AIVDM,1,1,,A,16K2?Kh01OawwB`DFSWU9l4h0D7m,0*3D
[2018-05-11 03:50:46] !AIVDM,1,1,,A,16KPi<h0009wiLTDI7``HK>d0<0v,0*21
[2018-05-11 03:50:46] !AIVDM,1,1,,B,36K2je0Oh2awlgJDI<nWwS4H0000,0*74
[2018-05-11 03:50:46] $GPGGA,054824.000,3540.0135,N,13947.5385,E,1,10,0.8,18.3,M,39.4,M,,0000*68
[2018-05-11 03:50:46] $GPRMC,054823.000,A,3540.0135,N,13947.5385,E,0.00,172.30,140518,,,A*6E
[2018-05-11 03:50:47] $GPGGA,054825.000,3540.0135,N,13947.5385,E,1,10,0.8,18.3,M,39.4,M,,0000*69
[2018-05-11 03:50:47] !AIVDM,1,1,,A,16K2;>@000awi4LDIGJ91U`j28>b,0*2B
[2018-05-11 03:50:47] $GPRMC,054824.000,A,3540.0135,N,13947.5385,E,0.00,172.30,140518,,,A*69
[2018-05-11 03:50:48] !AIVDM,2,1,8,A,55D30202@6rG<DtcN20ltj118DlUDn2222222216KQ9>J5G55QjT56Cp8888,0*6A
[2018-05-11 03:50:48] !AIVDM,2,2,8,A,88888888880,2*2C
[2018-05-11 03:50:48] !AIVDM,1,1,,A,36K2je0Oh2awlgNDI<nWQS6L01rh,0*48
[2018-05-11 03:50:48] !AIVDM,1,1,,B,16K2>3P001awhm6DI3Da?A4l2@?5,0*57
[2018-05-11 03:50:48] !AIVDM,1,1,,A,B6K2J0P00JOuLwU6Em0;qj=5WP06,0*18
[2018-05-11 03:50:48] $GPGGA,054826.000,3540.0135,N,13947.5385,E,1,10,0.8,18.3,M,39.4,M,,0000*6A
[2018-05-11 03:50:48] !AIVDM,1,1,,A,16K2;J@000awiPlDISN;cPLf0D42,0*5A
[2018-05-11 03:50:48] $GPRMC,054825.000,A,3540.0135,N,13947.5385,E,0.00,172.30,140518,,,A*68
[2018-05-11 03:50:49] !AIVDM,1,1,,B,16KJbT00019wiL8DIFC`AEdl0H?R,0*36
[2018-05-11 03:50:49] $GPGGA,054827.000,3540.0135,N,13947.5385,E,1,10,0.8,18.3,M,39.4,M,,0000*6B
[2018-05-11 03:50:49] $GPRMC,054826.000,A,3540.0135,N,13947.5385,E,0.00,172.30,140518,,,A*6B
[2018-05-11 03:50:50] !AIVDM,1,1,,B,16K2>>@01Bawm>tDGh?n6Tjp2H@5,0*24
[2018-05-11 03:50:50] $GPGGA,054828.000,3540.0135,N,13947.5385,E,1,10,0.8,18.3,M,39.4,M,,0000*64
[2018-05-11 03:50:50] $GPRMC,054827.000,A,3540.0135,N,13947.5385,E,0.00,172.30,140518,,,A*6A
[2018-05-11 03:50:51] !AIVDM,1,1,,B,16K2kS@000awi96DIINpS5nn2<5h,0*2C
[2018-05-11 03:50:51] !AIVDM,1,1,,B,16K8DA@000awi<FDIG1afp`r2@@l,0*61
[2018-05-11 03:50:51] $GPGGA,054829.000,3540.0135,N,13947.5385,E,1,10,0.8,18.3,M,39.4,M,,0000*65
[2018-05-11 03:50:51] !AIVDM,1,1,,A,16K2PfP001awi:tDIJc785jr04c0,0*6F
[2018-05-11 03:50:51] !AIVDM,1,1,,B,36KPiVm000awq0<DHUL5vb>p0000,0*48
[2018-05-11 03:50:51] $GPRMC,054828.000,A,3540.0135,N,13947.5385,E,0.00,172.30,140518,,,A*65
[2018-05-11 03:50:51] !AIVDM,1,1,,A,16K2QwP000awi78DIGJstmVr2<5<,0*27
[2018-05-11 03:50:51] !AIVDM,1,1,,B,36K2je0Oh3awlgPDI<n6VS:P00iP,0*00
[2018-05-11 03:50:52] $GPGGA,054830.000,3540.0135,N,13947.5385,E,1,10,0.8,18.3,M,39.4,M,,0000*6D
[2018-05-11 03:50:52] !AIVDM,1,1,,B,4047581v9G5hM:0IUhDHEQW00<4p,0*4F
[2018-05-11 03:50:52] $GPRMC,054829.000,A,3540.0135,N,13947.5385,E,0.00,172.30,140518,,,A*64
[2018-05-11 03:50:53] !AIVDM,1,1,,B,36K2:g@OhUb0P4PDDC;PKQ6v0131,0*21
[2018-05-11 03:50:53] !AIVDM,1,1,,B,16K2N?P001awhp8DHtkI1`Nt04c0,0*1B
[2018-05-11 03:50:53] $GPGGA,054831.000,3540.0135,N,13947.5385,E,1,10,0.8,18.3,M,39.4,M,,0000*6C
[2018-05-11 03:50:53] $GPRMC,054830.000,A,3540.0135,N,13947.5385,E,0.00,172.30,140518,,,A*6C
[2018-05-11 03:50:54] !AIVDM,1,1,,A,16K2je0Oh2awlgTDI<mF9C>`0@BU,0*62
[2018-05-11 03:50:54] !AIVDM,1,1,,B,16K8CwUP1JawscRDFqs5F?w02<55,0*4A
[2018-05-11 03:50:54] $GPGGA,054832.000,3540.0135,N,13947.5385,E,1,10,0.8,18.3,M,39.4,M,,0000*6F
[2018-05-11 03:50:54] $GPRMC,054831.000,A,3540.0135,N,13947.5385,E,0.00,172.30,140518,,,A*6D
[2018-05-11 03:50:54] !AIVDM,1,1,,B,16K2?Kh01NawwIJDFRwm9l5004c0,0*27
[2018-05-11 03:50:54] !AIVDM,1,1,,A,16K2;J0000awiJ@DIQ5cmV:t0@Bo,0*7E
[2018-05-11 03:50:55] $GPGGA,054833.000,3540.0135,N,13947.5385,E,1,10,0.8,18.3,M,39.4,M,,0000*6E
[2018-05-11 03:50:55] $GPRMC,054832.000,A,3540.0135,N,13947.5385,E,0.00,172.30,140518,,,A*6E
[2018-05-11 03:50:56] !AIVDM,1,1,,B,15?Apd0PB0b0A<lDCk?1PQ5224c0,0*2B
[2018-05-11 03:50:56] $GPGGA,054834.000,3540.0135,N,13947.5385,E,1,10,0.8,18.3,M,39.4,M,,0000*69
[2018-05-11 03:50:56] !AIVDM,1,1,,B,16KPi<h0009wiLTDI7``J;?00@Cj,0*16
[2018-05-11 03:50:56] !AIVDM,2,1,9,A,56KEH>02>PhsLaLj220ltj0<tm0E@Dp<F2222217LIIO?5FkNLBT856Cp888,0*03
[2018-05-11 03:50:56] !AIVDM,2,2,9,A,88888888880,2*2D
[2018-05-11 03:50:56] $GPRMC,054833.000,A,3540.0135,N,13947.5385,E,0.00,172.30,140518,,,A*6F
[2018-05-11 03:50:57] !AIVDM,1,1,,B,36K2je0Oh3awlgTDI<lUp3@d0200,0*56
[2018-05-11 03:50:57] $GPGGA,054835.000,3540.0135,N,13947.5385,E,1,10,0.8,18.3,M,39.4,M,,0000*68
[2018-05-11 03:50:57] !AIVDM,1,1,,A,16KJbT00019wiL8DIFC`AEe608DI,0*7E
[2018-05-11 03:50:57] $GPRMC,054834.000,A,3540.0135,N,13947.5385,E,0.00,172.30,140518,,,A*68
[2018-05-11 03:50:58] !AIVDM,2,1,0,B,56KTE@42<uDpa08r220dDTIF0l59F2222222221S30q2<5F10;ORT856Cp0H,0*6E
[2018-05-11 03:50:58] !AIVDM,2,2,0,B,88888888880,2*27
[2018-05-11 03:50:58] !AIVDM,1,1,,B,16K8Dng001awhjVDI3W@v0w80HDh,0*1B
[2018-05-11 03:50:58] $GPGGA,054836.000,3540.0135,N,13947.5385,E,1,10,0.8,18.3,M,39.4,M,,0000*6B
[2018-05-11 03:50:58] !AIVDM,1,1,,A,16K2>3P001awhm2DI3DqJ15828E2,0*15
[2018-05-11 03:50:58] !AIVDM,1,1,,B,15RGLH0000:0U8tDJHlc1iQ62D3L,0*5C
[2018-05-11 03:50:58] $GPRMC,054835.000,A,3540.0135,N,13947.5385,E,0.00,172.30,140518,,,A*69
[2018-05-11 03:50:59] !AIVDM,1,1,,B,16K2;J@000awiPlDISN;cPM808EQ,0*68
[2018-05-11 03:50:59] $GPGGA,054837.000,3540.0135,N,13947.5385,E,1,10,0.8,18.3,M,39.4,M,,0000*6A
[2018-05-11 03:50:59] !AIVDM,1,1,,A,16K2<Gh000awhPRDHtbJGpC:0D6n,0*35
[2018-05-11 03:50:59] !AIVDM,1,1,,A,16K2>>@01BawmBLDGgKn6Tk:28Ec,0*70
[2018-05-11 03:50:59] $GPRMC,054836.000,A,3540.0135,N,13947.5385,E,0.00,172.30,140518,,,A*6A
[2018-05-11 03:51:00] $GPGGA,054838.000,3540.0135,N,13947.5385,E,1,10,0.8,18.3,M,39.4,M,,0000*65
[2018-05-11 03:51:00] $GPRMC,054837.000,A,3540.0135,N,13947.5385,E,0.00,172.30,140518,,,A*6B
[2018-05-11 03:51:00] !AIVDM,1,1,,A,18Infd0viJb0>0HDEaBKuIM@0@FE,0*50
[2018-05-11 03:51:00] !AIVDM,1,1,,A,16K8DA@001awi<FDIG1I`pa>2@FI,0*23
[2018-05-11 03:51:01] !AIVDM,1,1,,B,16K2QwP000awi7:DIGJd6mW>20Rm,0*04
[2018-05-11 03:51:01] !AIVDM,1,1,,A,36K2je0Oh3awlgdDI<lEM3Bl00rh,0*5A
[2018-05-11 03:51:01] $GPGGA,054839.000,3540.0135,N,13947.5385,E,1,10,0.8,18.3,M,39.4,M,,0000*64
[2018-05-11 03:51:01] !AIVDM,1,1,,B,36K2PfP000awi:tDIJcW85k>06PS,0*10
[2018-05-11 03:51:01] $GPRMC,054838.000,A,3540.0135,N,13947.5385,E,0.00,172.30,140518,,,A*64
[2018-05-11 03:51:02] !AIVDM,1,1,,A,16K2kS@000awi9<DIINos5o<20S8,0*73
[2018-05-11 03:51:02] !AIVDM,1,1,,A,16K2N?P001awhp4DHtkI1`O>0L4B,0*02
[2018-05-11 03:51:02] $GPGGA,054840.000,3540.0135,N,13947.5385,E,1,10,0.8,18.3,M,39.4,M,,0000*6A
[2018-05-11 03:51:02] !AIVDM,1,1,,A,4047581v9G5hW:0IUhDHEQW008GN,0*1F
[2018-05-11 03:51:02] $GPRMC,054839.000,A,3540.0135,N,13947.5385,E,0.00,172.30,140518,,,A*65
[2018-05-11 03:51:03] $GPGGA,054841.000,3540.0135,N,13947.5385,E,1,10,0.8,18.3,M,39.4,M,,0000*6B
[2018-05-11 03:51:03] $GPRMC,054840.000,A,3540.0135,N,13947.5385,E,0.00,172.30,140518,,,A*6B
[2018-05-11 03:51:04] !AIVDM,1,1,,B,16Kw:AP01IawSGbD@WEp?VUD2<7B,0*78
[2018-05-11 03:51:04] !AIVDM,1,1,,A,16K2NIP01vb01nHDFP`5447D2<6d,0*15
[2018-05-11 03:51:04] $GPGGA,054842.000,3540.0135,N,13947.5385,E,1,10,0.8,18.4,M,39.4,M,,0000*6F
[2018-05-11 03:51:04] $GPRMC,054841.000,A,3540.0135,N,13947.5385,E,0.00,172.30,140518,,,A*6A
[2018-05-11 03:51:05] !AIVDM,1,1,,B,16K2;J0000awiJ@DIQ5cmV;@00Rg,0*20
[2018-05-11 03:51:05] !AIVDM,1,1,,B,16K2je0002awlghDI<l5<kBt0<6<,0*2C
[2018-05-11 03:51:05] !AIVDM,1,1,,A,16K2?Kh01OawwPvDFRBU;49F04c0,0*2D
[2018-05-11 03:51:05] !AIVDM,1,1,,A,16K8CwUOiJawsjhDFq9EEQMF2<58,0*2B
[2018-05-11 03:51:05] $GPGGA,054843.000,3540.0135,N,13947.5385,E,1,10,0.8,18.4,M,39.4,M,,0000*6E
[2018-05-11 03:51:05] $GPRMC,054842.000,A,3540.0135,N,13947.5385,E,0.00,172.30,140518,,,A*69
[2018-05-11 03:51:06] $GPGGA,054844.000,3540.0135,N,13947.5385,E,1,10,0.8,18.4,M,39.4,M,,0000*69
[2018-05-11 03:51:06] $GPRMC,054843.000,A,3540.0135,N,13947.5385,E,0.00,172.30,140518,,,A*68
[2018-05-11 03:51:07] !AIVDM,1,1,,A,16K2;>@000awi4NDIGJ8w5aJ2<4Q,0*12
[2018-05-11 03:51:07] !AIVDM,1,1,,B,36K2je0P@2awlghDI<kUSCA00000,0*5F
[2018-05-11 03:51:07] !AIVDM,1,1,,A,16KPi<h0009wiLTDI7`HEc?H0D0u,0*7A
[2018-05-11 03:51:07] $GPGGA,054845.000,3540.0135,N,13947.5385,E,1,10,0.8,18.4,M,39.4,M,,0000*68
[2018-05-11 03:51:07] !AIVDM,1,1,,B,16K2>n@000awt7BDHUA<`4UJ2<5W,0*6F
[2018-05-11 03:51:07] !AIVDM,1,1,,A,36K2je0P@2awlghDI<kUSCA001ph,0*45
[2018-05-11 03:51:07] $GPRMC,054844.000,A,3540.0135,N,13947.5385,E,0.00,172.30,140518,,,A*6F
[2018-05-11 03:51:08] !AIVDM,1,1,,B,16K2>3P000awhm6DI3DqOQ5L2D5r,0*4E
[2018-05-11 03:51:08] $GPGGA,054846.000,3540.0135,N,13947.5385,E,1,10,0.8,18.4,M,39.4,M,,0000*6B
[2018-05-11 03:51:08] $GPRMC,054845.000,A,3540.0135,N,13947.5385,E,0.00,172.30,140518,,,A*6E
[2018-05-11 03:51:09] !AIVDM,1,1,,B,16KJbT00009wiL8DIFC`AEeL00RM,0*1C
[2018-05-11 03:51:09] !AIVDM,1,1,,B,16K2<Gh000awhPTDHtc:F`CN00Rc,0*39
[2018-05-11 03:51:09] $GPGGA,054847.000,3540.0135,N,13947.5385,E,1,10,0.8,18.4,M,39.4,M,,0000*6A
[2018-05-11 03:51:09] !AIVDM,1,1,,A,16K2;J@000awiPlDISN;cPOJ0@KS,0*6F
[2018-05-11 03:51:09] $GPRMC,054846.000,A,3540.0135,N,13947.5385,E,0.00,172.30,140518,,,A*6D
[2018-05-11 03:51:10] !AIVDM,1,1,,B,18Infd001Jb0=p`DEao;taMR0HKq,0*71
[2018-05-11 03:51:10] $GPGGA,054848.000,3540.0135,N,13947.5385,E,1,10,0.8,18.4,M,39.4,M,,0000*65
[2018-05-11 03:51:10] $GPRMC,054847.000,A,3540.0135,N,13947.5385,E,0.00,172.30,140518,,,A*6C
[2018-05-11 03:51:10] !AIVDM,1,1,,B,36K2je0P@1awlgfDI<kmCC=800sh,0*15
[2018-05-11 03:51:11] !AIVDM,1,1,,B,16K2kS@000awi9>DIINpOEoN2D5i,0*10
[2018-05-11 03:51:11] !AIVDM,1,1,,B,16K2>>@01BawmFBDGfRF;lmR2@LI,0*49
[2018-05-11 03:51:11] !AIVDM,1,1,,B,16K8DA@000awi<LDIG1Ig`cR28LP,0*39
[2018-05-11 03:51:11] $GPGGA,054849.000,3540.0135,N,13947.5385,E,1,10,0.8,18.4,M,39.4,M,,0000*64
[2018-05-11 03:51:11] !AIVDM,1,1,,A,16K2QwP000awi7<DIGJtA5aR2HLe,0*0A
[2018-05-11 03:51:11] $GPRMC,054848.000,A,3540.0135,N,13947.5385,E,0.00,172.30,140518,,,A*63
[2018-05-11 03:51:12] !AIVDM,1,1,,B,16K2N?P001awhovDHtk91`OP0@Lo,0*1B
[2018-05-11 03:51:12] !AIVDM,1,1,,A,16K2PfP001awi;2DIJco85kT0@M7,0*0A
[2018-05-11 03:51:12] $GPGGA,054850.000,3540.0135,N,13947.5385,E,1,10,0.8,18.4,M,39.4,M,,0000*6C
[2018-05-11 03:51:12] $GPRMC,054849.000,A,3540.0135,N,13947.5385,E,0.00,172.30,140518,,,A*62
[2018-05-11 03:51:13] !AIVDM,2,1,1,A,56K2QwT00000`C?S7N20mE<5<PV222222222220l1`H46u88N7?RT856Cp28,0*41
[2018-05-11 03:51:13] !AIVDM,2,2,1,A,88888888880,2*25
[2018-05-11 03:51:13] $GPGGA,054851.000,3540.0135,N,13947.5385,E,1,10,0.8,18.4,M,39.4,M,,0000*6D
[2018-05-11 03:51:13] $GPRMC,054850.000,A,3540.0135,N,13947.5385,E,0.00,172.30,140518,,,A*6A
[2018-05-11 03:51:14] !AIVDM,1,1,,A,16K2je0P@1awlgjDI<kmCC;@0@N7,0*74
[2018-05-11 03:51:14] $GPGGA,054852.000,3540.0135,N,13947.5385,E,1,10,0.8,18.4,M,39.4,M,,0000*6E
[2018-05-11 03:51:14] $GPRMC,054851.000,A,3540.0135,N,13947.5385,E,0.00,172.30,140518,,,A*6B
[2018-05-11 03:51:14] !AIVDM,1,1,,B,16K2?Kh01Naww`DDFQTU?D9b00SA,0*2D
[2018-05-11 03:51:15] !AIVDM,1,1,,A,16K2;J0000awiJ@DIQ5cmV;V08Ni,0*2F
[2018-05-11 03:51:15] $GPGGA,054853.000,3540.0135,N,13947.5385,E,1,10,0.8,18.4,M,39.4,M,,0000*6F
[2018-05-11 03:51:15] $GPRMC,054852.000,A,3540.0135,N,13947.5385,E,0.00,172.30,140518,,,A*68
[2018-05-11 03:51:15] !AIVDM,1,1,,B,16KPi<h0009wiLTDI7WpHs?`0@O8,0*75
[2018-05-11 03:51:16] $GPGGA,054854.000,3540.0135,N,13947.5385,E,1,10,0.8,18.4,M,39.4,M,,0000*68
[2018-05-11 03:51:16] !AIVDM,1,1,,B,16K2;>@001awi4NDIGJ9I5ad2HOW,0*08
[2018-05-11 03:51:16] $GPRMC,054853.000,A,3540.0135,N,13947.5385,E,0.00,172.30,140518,,,A*69
[2018-05-11 03:51:17] !AIVDM,1,1,,B,16K8Dng001awhjRDI3Whv0uf0HOp,0*78
[2018-05-11 03:51:17] !AIVDM,1,1,,B,36K2je0P@1awlglDI<kECC7D028P,0*30
[2018-05-11 03:51:17] $GPGGA,054855.000,3540.0135,N,13947.5385,E,1,10,0.8,18.4,M,39.4,M,,0000*69
[2018-05-11 03:51:17] !AIVDM,1,1,,A,16KJbT00019wiL8DIFF8AEef0@P;,0*6D
[2018-05-11 03:51:17] $GPRMC,054854.000,A,3540.0135,N,13947.5385,E,0.00,172.30,140518,,,A*6E
[2018-05-11 03:51:17] !AIVDM,1,1,,B,B6K2F9@05JP2WQU5sm2fkwsUWP06,0*2D
[2018-05-11 03:51:17] !AIVDM,1,1,,A,16K2<Gh000awhPVDHtcbF`Ch04c0,0*20
[2018-05-11 03:51:17] !AIVDM,1,1,,A,36K2WEm000awt22DHBn7FFGb0Dg:,0*6C
[2018-05-11 03:51:18] !AIVDM,1,1,,A,16K2>3P001awhm8DI3DqJi5h2<5s,0*22
[2018-05-11 03:51:18] $GPGGA,054856.000,3540.0135,N,13947.5385,E,1,10,0.8,18.4,M,39.4,M,,0000*6A
[2018-05-11 03:51:18] !AIVDM,1,1,,B,16K2;J@000awiPlDISN;cPMd0D42,0*5A
[2018-05-11 03:51:18] $GPRMC,054855.000,A,3540.0135,N,13947.5385,E,0.00,172.30,140518,,,A*6F
[2018-05-11 03:51:18] !AIVDM,1,1,,B,B6K2J0P00JOuM0U6ElPCQjL5WP06,0*15
[2018-05-11 03:51:19] $GPGGA,054857.000,3540.0135,N,13947.5385,E,1,10,0.8,18.4,M,39.4,M,,0000*6B
[2018-05-11 03:51:19] !AIVDM,1,1,,B,B6K2k5P0:bOt2FU6AKbk7wt5oP06,0*59
[2018-05-11 03:51:19] $GPRMC,054856.000,A,3540.0135,N,13947.5385,E,0.00,172.30,140518,,,A*6C
[2018-05-11 03:51:19] !AIVDM,1,1,,A,18Infd01AIb0=hpDEbJKrqOn0@QP,0*45
[2018-05-11 03:51:20] $GPGGA,054858.000,3540.0135,N,13947.5385,E,1,10,0.8,18.4,M,39.4,M,,0000*64
[2018-05-11 03:51:20] !AIVDM,1,1,,B,16K2PfP001awi;4DIJco85il0<58,0*3E
[2018-05-11 03:51:20] !AIVDM,1,1,,B,16K2QwP000awi7>DIGJdEEal2HQr,0*5B
[2018-05-11 03:51:20] !AIVDM,2,1,2,B,56K2;>@00000`C;CWR05<4PV222222222222220l1`H27588N9Dj2@PEDPH8,0*61
[2018-05-11 03:51:20] !AIVDM,2,2,2,B,88888888880,2*25
[2018-05-11 03:51:20] !AIVDM,1,1,,A,16K2>>@01CawmIbDGee6;Ton2<6g,0*0E
[2018-05-11 03:51:21] !AIVDM,1,1,,A,16K8DA@001awi<JDIG19npcn2D5:,0*07
[2018-05-11 03:51:21] $GPGGA,054859.000,3540.0135,N,13947.5385,E,1,10,0.8,18.4,M,39.4,M,,0000*65
[2018-05-11 03:51:21] $GPRMC,054858.000,A,3540.0135,N,13947.5385,E,0.00,172.30,140518,,,A*62
[2018-05-11 03:51:22] !AIVDM,1,1,,A,16K2kS@000awi9>DIIN8IEon2<5i,0*05
[2018-05-11 03:51:22] $GPGGA,054900.000,3540.0135,N,13947.5385,E,1,10,0.8,18.4,M,39.4,M,,0000*68
[2018-05-11 03:51:22] !AIVDM,1,1,,A,16K2N?P001awhovDHtk91`On0@03,0*06
[2018-05-11 03:51:22] $GPRMC,054859.000,A,3540.0135,N,13947.5385,E,0.00,172.30,140518,,,A*63
[2018-05-11 03:51:23] !AIVDM,1,1,,A,36K2je0P@1awlgvDI<kECC5P0000,0*55
[2018-05-11 03:51:23] $GPGGA,054901.000,3540.0135,N,13947.5385,E,1,10,0.8,18.4,M,39.4,M,,0000*69
[2018-05-11 03:51:23] $GPRMC,054900.000,A,3540.0135,N,13947.5385,E,0.00,172.30,140518,,,A*6E
[2018-05-11 03:51:24] !AIVDM,1,1,,B,36K2je0001awlh2DI<kECC5T0000,0*09
[2018-05-11 03:51:24] $GPGGA,054902.000,3540.0135,N,13947.5385,E,1,10,0.8,18.4,M,39.4,M,,0000*6A
[2018-05-11 03:51:24] !AIVDM,1,1,,B,16K2;J0000awiJ@DIQ5cmV:00@13,0*16
[2018-05-11 03:51:24] $GPRMC,054901.000,A,3540.0135,N,13947.5385,E,0.00,172.30,140518,,,A*6F
[2018-05-11 03:51:25] !AIVDM,1,1,,B,35AtRT5001awj8bDH<6`e:f60Dob,0*22
[2018-05-11 03:51:25] $GPGGA,054903.000,3540.0135,N,13947.5385,E,1,10,0.8,18.4,M,39.4,M,,0000*6B
[2018-05-11 03:51:25] $GPRMC,054902.000,A,3540.0135,N,13947.5385,E,0.00,172.30,140518,,,A*6C
[2018-05-11 03:51:26] !AIVDM,1,1,,A,16KPi<h0009wiLVDI7W8G;>60L0u,0*12
[2018-05-11 03:51:26] !AIVDM,2,1,3,A,577MOU42CPCMI8qOR20lThB0`5ab222222222216@HA@7uG70CwRT856Cp4`,0*66
[2018-05-11 03:51:26] !AIVDM,2,2,3,A,88888888880,2*27
[2018-05-11 03:51:26] $GPGGA,054904.000,3540.0135,N,13947.5385,E,1,10,0.8,18.4,M,39.4,M,,0000*6C
[2018-05-11 03:51:26] $GPRMC,054903.000,A,3540.0135,N,13947.5385,E,0.00,172.30,140518,,,A*6D
[2018-05-11 03:51:27] !AIVDM,1,1,,A,16K2;>@000awi4NDIGJIRE`:20Rb,0*1E
[2018-05-11 03:51:27] !AIVDM,1,1,,B,36K2;Km0009wj8<DIWfPD6H40000,0*36
[2018-05-11 03:51:27] $GPGGA,054905.000,3540.0135,N,13947.5385,E,1,10,0.8,18.4,M,39.4,M,,0000*6D
[2018-05-11 03:51:27] !AIVDM,1,1,,B,16K2>n@000awt7VDHUAd`4T:2<5`,0*65
[2018-05-11 03:51:27] $GPRMC,054904.000,A,3540.0135,N,13947.5385,E,0.00,172.30,140518,,,A*6A
[2018-05-11 03:51:28] !AIVDM,1,1,,B,16K2<Gh000awhPVDHtcbF`B<0D6n,0*0D
[2018-05-11 03:51:28] $GPGGA,054906.000,3540.0135,N,13947.5385,E,1,10,0.8,18.4,M,39.4,M,,0000*6E
[2018-05-11 03:51:28] $GPRMC,054905.000,A,3540.0135,N,13947.5385,E,0.00,172.30,140518,,,A*6B
[2018-05-11 03:51:28] !AIVDM,1,1,,B,16KJbT00009wiL8DIFF8AEd<0@3V,0*3A
[2018-05-11 03:51:28] !AIVDM,1,1,,B,16K2>3P000awhm6DI3EIS14>24c4,0*18
[2018-05-11 03:51:29] !AIVDM,1,1,,A,377MOU50009wp9HDGsGq5b>>2DWb,0*5A
[2018-05-11 03:51:29] $GPGGA,054907.000,3540.0135,N,13947.5385,E,1,10,0.8,18.4,M,39.4,M,,0000*6F
[2018-05-11 03:51:29] $GPRMC,054906.000,A,3540.0135,N,13947.5385,E,0.00,172.30,140518,,,A*68
[2018-05-11 03:51:30] !AIVDM,1,1,,A,16K2;J@000awiPlDISN;cPL<00S@,0*61
[2018-05-11 03:51:30] $GPGGA,054908.000,3540.0135,N,13947.5385,E,1,10,0.8,18.4,M,39.4,M,,0000*60
[2018-05-11 03:51:30] !AIVDM,1,1,,A,16K2PfP001awi;:DIJcW85f@0H4d,0*01
[2018-05-11 03:51:30] $GPRMC,054907.000,A,3540.0135,N,13947.5385,E,0.00,172.30,140518,,,A*69
[2018-05-11 03:51:30] !AIVDM,1,1,,B,16K8DA@002awi<JDIG19vp`@2@4i,0*64
[2018-05-11 03:51:31] !AIVDM,1,1,,B,18Infd001Ib0=`HDEc2Ks9ND00RV,0*69
[2018-05-11 03:51:31] !AIVDM,1,1,,B,16K2>>@01FawmMHDGdiV;TnB24c4,0*68
[2018-05-11 03:51:31] $GPGGA,054909.000,3540.0135,N,13947.5385,E,1,10,0.8,18.4,M,39.4,M,,0000*61
[2018-05-11 03:51:31] !AIVDM,1,1,,A,16K2QwP000awi7<DIGJd;U`B20SA,0*52
[2018-05-11 03:51:31] $GPRMC,054908.000,A,3540.0135,N,13947.5385,E,0.00,172.30,140518,,,A*66
[2018-05-11 03:51:32] !AIVDM,1,1,,B,16K2kS@000awi9>DIIO8G5n@2@5P,0*13
[2018-05-11 03:51:32] !AIVDM,1,1,,B,16K2N?P001awhovDHtja1`NB00S@,0*11
[2018-05-11 03:51:32] $GPGGA,054910.000,3540.0135,N,13947.5385,E,1,10,0.8,18.4,M,39.4,M,,0000*69
[2018-05-11 03:51:32] $GPRMC,054909.000,A,3540.0135,N,13947.5385,E,0.00,172.30,140518,,,A*67
[2018-05-11 03:51:33] !AIVDM,2,1,4,A,56KPii02=bWd`kKO761=DpHhuLE:0P4d5@6222165Au>=5H5N@RT822m8485,0*67
[2018-05-11 03:51:33] !AIVDM,2,2,4,A,skH88888880,2*48
[2018-05-11 03:51:33] $GPGGA,054911.000,3540.0135,N,13947.5385,E,1,10,0.8,18.4,M,39.4,M,,0000*68
[2018-05-11 03:51:33] !AIVDM,1,1,,B,36K2je0Oh3awlh>DI<iTek7l00OP,0*18
[2018-05-11 03:51:33] $GPRMC,054910.000,A,3540.0135,N,13947.5385,E,0.00,172.30,140518,,,A*6F
[2018-05-11 03:51:34] !AIVDM,1,1,,A,36K2je0Oh3awlhDDI<i4ek6001:0,0*48
[2018-05-11 03:51:34] $GPGGA,054912.000,3540.0135,N,13947.5385,E,1,10,0.8,18.4,M,39.4,M,,0000*6B
[2018-05-11 03:51:34] $GPRMC,054911.000,A,3540.0135,N,13947.5385,E,0.00,172.30,140518,,,A*6E
[2018-05-11 03:51:34] !AIVDM,1,1,,A,16K2;J0000awiJ@DIQ5cmV:F04c4,0*42
[2018-05-11 03:51:35] !AIVDM,1,1,,B,35?Apd0PAwb0AcPDCoOi<PbH20vA,0*02
[2018-05-11 03:51:35] $GPGGA,054913.000,3540.0135,N,13947.5385,E,1,10,0.8,18.4,M,39.4,M,,0000*6A
[2018-05-11 03:51:35] $GPRMC,054912.000,A,3540.0135,N,13947.5385,E,0.00,172.30,140518,,,A*6D
[2018-05-11 03:51:36] $GPGGA,054914.000,3540.0135,N,13947.5385,E,1,10,0.8,18.4,M,39.4,M,,0000*6D
[2018-05-11 03:51:36] !AIVDM,1,1,,B,16KPi<h0009wiLbDI7UpI;>J088:,0*2E
[2018-05-11 03:51:36] $GPRMC,054913.000,A,3540.0135,N,13947.5385,E,0.00,172.30,140518,,,A*6C
[2018-05-11 03:51:36] !AIVDM,1,1,,B,16K2;>@000awi4PDIGJaV5`N20SD,0*0C
[2018-05-11 03:51:37] !AIVDM,1,1,,B,36K2je0Oh4awlhLDI<hlQk840200,0*2A
[2018-05-11 03:51:37] !AIVDM,1,1,,A,16K2>n@000awt7nDHUAd`4TN20R@,0*61
[2018-05-11 03:51:37] !AIVDM,1,1,,A,16KJbT00009wiL8DIFF8AEdL00T8,0*30
[2018-05-11 03:51:37] $GPGGA,054915.000,3540.0135,N,13947.5385,E,1,10,0.8,18.4,M,39.4,M,,0000*6C
[2018-05-11 03:51:37] $GPRMC,054914.000,A,3540.0135,N,13947.5385,E,0.00,172.30,140518,,,A*6B
[2018-05-11 03:51:37] !AIVDM,1,1,,B,15RGLH0000:0U8rDJHlc1iPP288n,0*68
[2018-05-11 03:51:37] !AIVDM,1,1,,B,16K8Dng000awhjfDI3`0v0vP0D4q,0*61
[2018-05-11 03:51:38] $GPGGA,054916.000,3540.0135,N,13947.5385,E,1,10,0.8,18.4,M,39.4,M,,0000*6F
[2018-05-11 03:51:38] !AIVDM,1,1,,B,16K2;J@000awiPlDISN;cPLL0D41,0*70
[2018-05-11 03:51:39] !AIVDM,1,1,,A,16K2>>@PAFawmP4DGd56<llR2<6h,0*0A
[2018-05-11 03:51:39] !AIVDM,1,1,,A,18Infd001Ib0=R:DEcO;s9NT0<5h,0*62
[2018-05-11 03:51:39] $GPGGA,054917.000,3540.0135,N,13947.5385,E,1,10,0.8,18.4,M,39.4,M,,0000*6E
[2018-05-11 03:51:39] !AIVDM,1,1,,A,16K2<Gh000awhP`DHtd:F`BR0H9n,0*0A
[2018-05-11 03:51:39] !AIVDM,1,1,,A,16K2>3P001awhm8DI3E9MQ4R2H9u,0*11
[2018-05-11 03:51:39] $GPRMC,054916.000,A,3540.0135,N,13947.5385,E,0.00,172.30,140518,,,A*69
[2018-05-11 03:51:40] !AIVDM,1,1,,B,16K2<EwP1CawvU:DFLmDbwvT20R;,0*43
[2018-05-11 03:51:40] $GPGGA,054918.000,3540.0135,N,13947.5385,E,1,10,0.8,18.4,M,39.4,M,,0000*61
[2018-05-11 03:51:40] !AIVDM,1,1,,A,35Poo<50009wiApDHLDh0;<P2000,0*56
[2018-05-11 03:51:40] $GPRMC,054917.000,A,3540.0135,N,13947.5385,E,0.00,172.30,140518,,,A*68
[2018-05-11 03:51:41] !AIVDM,1,1,,A,16K8DA@001awi<NDIG19qH`V28:o,0*39
[2018-05-11 03:51:41] !AIVDM,1,1,,B,16K2QwP000awi7<DIGJ<8mVV2@:t,0*3C
[2018-05-11 03:51:41] !AIVDM,1,1,,A,36K2kS@000awi9>DIIN7hmnT24VS,0*6B
[2018-05-11 03:51:41] !AIVDM,1,1,,B,35?Apd0PAub0AgVDCp<A7@TV20sh,0*59
[2018-05-11 03:51:42] !AIVDM,1,1,,B,16K2PfP001awi;:DIJcG85f`00S?,0*76
[2018-05-11 03:51:42] $GPGGA,054920.000,3540.0135,N,13947.5385,E,1,10,0.8,18.4,M,39.4,M,,0000*6A
[2018-05-11 03:51:42] $GPRMC,054919.000,A,3540.0135,N,13947.5385,E,0.00,172.30,140518,,,A*66
[2018-05-11 03:51:43] $GPGGA,054921.000,3540.0135,N,13947.5385,E,1,10,0.8,18.4,M,39.4,M,,0000*6B
[2018-05-11 03:51:43] !AIVDM,1,1,,A,16K2N?P000awhorDHtja1`N`04c4,0*75
[2018-05-11 03:51:43] $GPRMC,054920.000,A,3540.0135,N,13947.5385,E,0.00,172.30,140518,,,A*6C
[2018-05-11 03:51:44] !AIVDM,1,1,,B,16K2;J0000awiJ@DIQ5cmV:V04c4,0*51
[2018-05-11 03:51:44] $GPGGA,054922.000,3540.0135,N,13947.5385,E,1,10,0.8,18.4,M,39.4,M,,0000*68
[2018-05-11 03:51:44] !AIVDM,1,1,,A,36K8Cii000b0@?4DGLK`8J2b0000,0*7C
[2018-05-11 03:51:44] !AIVDM,1,1,,B,16K2je0005awlhrDI<gTTk8D0H<l,0*58
[2018-05-11 03:51:45] $GPGGA,054923.000,3540.0135,N,13947.5385,E,1,10,0.8,18.4,M,39.4,M,,0000*69
[2018-05-11 03:51:45] $GPRMC,054922.000,A,3540.0135,N,13947.5385,E,0.00,172.30,140518,,,A*6E
[2018-05-11 03:51:46] !AIVDM,1,1,,B,16K2>n@000awt86DHUAt`4Th24c4,0*42
[2018-05-11 03:51:46] !AIVDM,2,1,5,B,56K2PfT00000`C?OGR0PTpt@F0l59F222222220l1HF3940Ht9P000000000,0*55
[2018-05-11 03:51:46] !AIVDM,2,2,5,B,00000000000,2*22
[2018-05-11 03:51:46] !AIVDM,1,1,,A,36K2je0P@5awli0DI<gTI38H0040,0*6F
[2018-05-11 03:51:46] !AIVDM,1,1,,A,16KPi<h0009wiLfDI7V`Nc>d08=m,0*19
[2018-05-11 03:51:46] $GPGGA,054924.000,3540.0135,N,13947.5385,E,1,10,0.8,18.4,M,39.4,M,,0000*6E
[2018-05-11 03:51:46] !AIVDM,1,1,,B,36K2je0P@4awli0DI<gT<k6H0000,0*4A
[2018-05-11 03:51:46] !AIVDM,1,1,,A,36K2je0P@4awli0DI<gT<k6H022h,0*11
[2018-05-11 03:51:47] !AIVDM,1,1,,A,B6K2k5P0<rOt0dU6ALElswd5oP06,0*1F
[2018-05-11 03:51:47] $GPGGA,054925.000,3540.0135,N,13947.5385,E,1,10,0.8,18.4,M,39.4,M,,0000*6F
[2018-05-11 03:51:47] !AIVDM,1,1,,A,16K2;>@000awi4JDIGJIMU`j24c4,0*26
[2018-05-11 03:51:47] $GPRMC,054924.000,A,3540.0135,N,13947.5385,E,0.00,172.30,140518,,,A*68
[2018-05-11 03:51:47] !AIVDM,1,1,,B,16K2<Gh000awhPbDHtcrF`Bl0<6m,0*02
[2018-05-11 03:51:48] !AIVDM,1,1,,B,16K2>3P001awhm<DI3Da=14l2<5s,0*1F
[2018-05-11 03:51:48] $GPGGA,054926.000,3540.0135,N,13947.5385,E,1,10,0.8,18.4,M,39.4,M,,0000*6C
[2018-05-11 03:51:48] !AIVDM,1,1,,A,16K2;J@000awiPlDISN;cPNh0@?=,0*56
[2018-05-11 03:51:48] !AIVDM,1,1,,A,377Vnk5000awpVpDGnVP`:>j0000,0*66
[2018-05-11 03:51:48] $GPRMC,054925.000,A,3540.0135,N,13947.5385,E,0.00,172.30,140518,,,A*69
[2018-05-11 03:51:49] !AIVDM,1,1,,A,16K2<EwP1Cawvd4DFLKTdwvn24c4,0*4F
[2018-05-11 03:51:49] !AIVDM,1,1,,B,16KJbT00009wiKPDIFF8AEdl0D0m,0*39
[2018-05-11 03:51:49] $GPGGA,054927.000,3540.0135,N,13947.5385,E,1,10,0.8,18.4,M,39.4,M,,0000*6D
[2018-05-11 03:51:49] $GPRMC,054926.000,A,3540.0135,N,13947.5385,E,0.00,172.30,140518,,,A*6A
[2018-05-11 03:51:50] !AIVDM,1,1,,B,18Infd001Jb0=IdDEd7KtINr08@0,0*50
[2018-05-11 03:51:50] !AIVDM,1,1,,B,16K2>>@01GawmS`DGc=F3lfp2D6h,0*6F
[2018-05-11 03:51:50] $GPGGA,054928.000,3540.0135,N,13947.5385,E,1,10,0.8,18.4,M,39.4,M,,0000*62
[2018-05-11 03:51:50] !AIVDM,1,1,,B,36K2je0P@3awli6DI<gT:32P0110,0*09
[2018-05-11 03:51:50] $GPRMC,054927.000,A,3540.0135,N,13947.5385,E,0.00,172.30,140518,,,A*6B
[2018-05-11 03:51:51] !AIVDM,1,1,,B,16K2kS@000awi9@DIINWoEnn28@i,0*41
[2018-05-11 03:51:51] !AIVDM,1,1,,B,16K8DA@000awi<NDIG1J0H`r2<5;,0*72
[2018-05-11 03:51:51] $GPGGA,054929.000,3540.0135,N,13947.5385,E,1,10,0.8,18.4,M,39.4,M,,0000*63
[2018-05-11 03:51:51] !AIVDM,1,1,,A,36L:VN5001awkGRDI`sJqUNp2000,0*6D
[2018-05-11 03:51:51] !AIVDM,1,1,,A,16K2PfP001awi;:DIJcW85hr00S4,0*72
[2018-05-11 03:51:51] !AIVDM,1,1,,A,35D3025000awlJtDGd1GI:Bp0000,0*44
[2018-05-11 03:51:51] $GPRMC,054928.000,A,3540.0135,N,13947.5385,E,0.00,172.30,140518,,,A*64
[2018-05-11 03:51:51] !AIVDM,1,1,,A,16K2QwP001awi7<DIGJ<?UVr28A5,0*67
[2018-05-11 03:51:51] !AIVDM,1,1,,A,B6K2J0P00JOuM3U6ElLIqjfUWP06,0*69
[2018-05-11 03:51:52] $GPGGA,054930.000,3540.0135,N,13947.5385,E,1,10,0.8,18.4,M,39.4,M,,0000*6B
[2018-05-11 03:51:52] $GPRMC,054929.000,A,3540.0135,N,13947.5385,E,0.00,172.30,140518,,,A*65
[2018-05-11 03:51:52] !AIVDM,1,1,,A,?0475818bdR0D003000,2*0F
[2018-05-11 03:51:53] !AIVDM,1,1,,B,?0475818bdR0D003000,2*0C
[2018-05-11 03:51:53] !AIVDM,1,1,,B,16K2N?P000awhorDHtja1`Nt00R?,0*5C
[2018-05-11 03:51:53] $GPGGA,054931.000,3540.0135,N,13947.5385,E,1,10,0.8,18.4,M,39.4,M,,0000*6A
[2018-05-11 03:51:53] $GPRMC,054930.000,A,3540.0135,N,13947.5385,E,0.00,172.30,140518,,,A*6D
[2018-05-11 03:51:54] !AIVDM,1,1,,A,16K2je0P@2awli<DI<h2F2v`0<6;,0*62
[2018-05-11 03:51:54] $GPGGA,054932.000,3540.0135,N,13947.5385,E,1,10,0.8,18.4,M,39.4,M,,0000*69
[2018-05-11 03:51:54] $GPRMC,054931.000,A,3540.0135,N,13947.5385,E,0.00,172.30,140518,,,A*6C
[2018-05-11 03:51:54] !AIVDM,1,1,,B,16K2?Kh01Ob005jDFNgm:l5000SG,0*35
[2018-05-11 03:51:54] !AIVDM,1,1,,A,14VM9n0Oh7b08w6DFNwVJ`U02D8S,0*5B
[2018-05-11 03:51:55] $GPGGA,054933.000,3540.0135,N,13947.5385,E,1,10,0.8,18.4,M,39.4,M,,0000*68
[2018-05-11 03:51:55] $GPRMC,054932.000,A,3540.0135,N,13947.5385,E,0.00,172.30,140518,,,A*6F
[2018-05-11 03:51:56] !AIVDM,1,1,,B,35?Apd0PAsb0ApBDCr30qhI220pi,0*35
[2018-05-11 03:51:56] $GPGGA,054934.000,3540.0135,N,13947.5385,E,1,10,0.8,18.4,M,39.4,M,,0000*6F
[2018-05-11 03:51:56] !AIVDM,1,1,,B,16KPi<h0009wiLdDI7`8MK?20<0v,0*18
[2018-05-11 03:51:56] $GPRMC,054933.000,A,3540.0135,N,13947.5385,E,0.00,172.30,140518,,,A*6E
[2018-05-11 03:51:57] !AIVDM,2,1,6,A,58KJMP42>r:U?H8gR20lUA8608QDn22222222216A8;9>5G90DBT856Cp4p8,0*77
[2018-05-11 03:51:57] !AIVDM,2,2,6,A,88888888880,2*22
[2018-05-11 03:51:57] !AIVDM,1,1,,A,16K2>n@000awt88DHUAt`4U62HDF,0*39
[2018-05-11 03:51:57] $GPGGA,054935.000,3540.0135,N,13947.5385,E,1,10,0.8,18.4,M,39.4,M,,0000*6E
[2018-05-11 03:51:57] !AIVDM,1,1,,A,16KJbT00019wiKPDIFF8AEe404c4,0*18
[2018-05-11 03:51:57] !AIVDM,1,1,,B,36K2je0P@3awliFDI<iAWRth026h,0*4C
[2018-05-11 03:51:57] !AIVDM,1,1,,B,16K2;>@001awi4JDIGJaIUa62HDM,0*77
[2018-05-11 03:51:57] $GPRMC,054934.000,A,3540.0135,N,13947.5385,E,0.00,172.30,140518,,,A*69
[2018-05-11 03:51:57] !AIVDM,1,1,,B,38HtFh5000awm6DDGUwHr:Bv2000,0*27
[2018-05-11 03:51:58] !AIVDM,1,1,,B,16K8Dng001awhjfDI3Vhv0u80D4q,0*65
[2018-05-11 03:51:58] $GPGGA,054936.000,3540.0135,N,13947.5385,E,1,10,0.8,18.4,M,39.4,M,,0000*6D
[2018-05-11 03:51:58] !AIVDM,1,1,,A,16K2>3P001awhm<DI3DaCi5824c4,0*76
[2018-05-11 03:51:58] !AIVDM,1,1,,B,15RGLH0001:0U92DJHlc1iQ82@E3,0*19
[2018-05-11 03:51:58] $GPRMC,054935.000,A,3540.0135,N,13947.5385,E,0.00,172.30,140518,,,A*68
[2018-05-11 03:51:59] !AIVDM,1,1,,B,16K2;J@000awiPlDISN;cPM804c4,0*27
[2018-05-11 03:51:59] $GPGGA,054937.000,3540.0135,N,13947.5385,E,1,10,0.8,18.4,M,39.4,M,,0000*6C
[2018-05-11 03:51:59] !AIVDM,1,1,,A,16K2>>@01GawmWbDGbFn4Dg:24c4,0*25
[2018-05-11 03:51:59] $GPRMC,054936.000,A,3540.0135,N,13947.5385,E,0.00,172.30,140518,,,A*6B
[2018-05-11 03:52:00] $GPGGA,054938.000,3540.0135,N,13947.5385,E,1,10,0.8,18.4,M,39.4,M,,0000*63
[2018-05-11 03:52:00] !AIVDM,1,1,,B,16K2QwP001awi7>DIGJL<mW<2HF9,0*19
[2018-05-11 03:52:00] !AIVDM,1,1,,A,36K2je0P@5awliLDI<j1V2pl00w0,0*4A
[2018-05-11 03:52:00] $GPRMC,054937.000,A,3540.0135,N,13947.5385,E,0.00,172.30,140518,,,A*6A
[2018-05-11 03:52:00] !AIVDM,1,1,,A,16K8DA@002awi<RDIG1b68a>2<5;,0*7C
[2018-05-11 03:52:01] $GPGGA,054939.000,3540.0135,N,13947.5385,E,1,10,0.8,18.4,M,39.4,M,,0000*62
[2018-05-11 03:52:01] !AIVDM,1,1,,B,16K2PfP000awi;4DIJcW85i>04c4,0*07
[2018-05-11 03:52:01] $GPRMC,054938.000,A,3540.0135,N,13947.5385,E,0.00,172.30,140518,,,A*65
[2018-05-11 03:52:01] !AIVDM,1,1,,A,16K2kS@000awi9<DIINF>Uo<2@Fv,0*5C
[2018-05-11 03:52:02] !AIVDM,1,1,,B,35?Apd0PAsb0As6DCrjhl0C@211h,0*3F
[2018-05-11 03:52:02] !AIVDM,1,1,,A,16K2N?P001awhovDHtj91`O>0HGB,0*59
[2018-05-11 03:52:02] $GPGGA,054940.000,3540.0135,N,13947.5385,E,1,10,0.8,18.4,M,39.4,M,,0000*6C
[2018-05-11 03:52:02] $GPRMC,054939.000,A,3540.0135,N,13947.5385,E,0.00,172.30,140518,,,A*64
[2018-05-11 03:52:03] $GPGGA,054941.000,3540.0135,N,13947.5385,E,1,10,0.8,18.4,M,39.4,M,,0000*6D
[2018-05-11 03:52:03] !AIVDM,1,1,,A,16K2:g@00ib0PEHDDErQO1IB0<5:,0*33
[2018-05-11 03:52:03] $GPRMC,054940.000,A,3540.0135,N,13947.5385,E,0.00,172.30,140518,,,A*6A
[2018-05-11 03:52:04] !AIVDM,1,1,,B,16K2;J0000awiJ@DIQ5cmV;<0<2A,0*16
[2018-05-11 03:52:04] $GPGGA,054942.000,3540.0135,N,13947.5385,E,1,10,0.8,18.4,M,39.4,M,,0000*6E
[2018-05-11 03:52:04] !AIVDM,1,1,,A,16K2?Kh01Ob00=DDFN3U:D3D0L7o,0*16
[2018-05-11 03:52:04] $GPRMC,054941.000,A,3540.0135,N,13947.5385,E,0.00,172.30,140518,,,A*6B
[2018-05-11 03:52:05] !AIVDM,1,1,,B,16K2je0P@6awlibDI<kQTjnt08Hn,0*32
[2018-05-11 03:52:05] !AIVDM,1,1,,B,36KPii50009wreTDHDE<CTW@0000,0*02
[2018-05-11 03:52:05] $GPGGA,054943.000,3540.0135,N,13947.5385,E,1,10,0.8,18.4,M,39.4,M,,0000*6F
[2018-05-11 03:52:05] $GPRMC,054942.000,A,3540.0135,N,13947.5385,E,0.00,172.30,140518,,,A*68
[2018-05-11 03:52:05] !AIVDM,1,1,,A,35?Apd0PAsb0AtHDCs=PgPAF20mQ,0*20
[2018-05-11 03:52:06] $GPGGA,054944.000,3540.0135,N,13947.5385,E,1,10,0.8,18.4,M,39.4,M,,0000*68
[2018-05-11 03:52:06] !AIVDM,1,1,,B,36LAs>5000awmmtDIMT9KW=H0000,0*43
[2018-05-11 03:52:06] $GPRMC,054943.000,A,3540.0135,N,13947.5385,E,0.00,172.30,140518,,,A*69
[2018-05-11 03:52:07] !AIVDM,1,1,,A,16K2;>@001awi4LDIGJI:EaJ28Iw,0*02
[2018-05-11 03:52:07] !AIVDM,1,1,,A,16KPi<h0009wiLfDI7aHMc?F0@J9,0*7D
[2018-05-11 03:52:07] $GPGGA,054945.000,3540.0135,N,13947.5385,E,1,10,0.8,18.4,M,39.4,M,,0000*69
[2018-05-11 03:52:07] !AIVDM,1,1,,A,36K2je0P@8awlilDI<lAcBm00260,0*56
[2018-05-11 03:52:07] !AIVDM,1,1,,B,16K2>n@000awt82DHUAt`4UJ28J@,0*34
[2018-05-11 03:52:07] $GPRMC,054944.000,A,3540.0135,N,13947.5385,E,0.00,172.30,140518,,,A*6E
[2018-05-11 03:52:07] !AIVDM,1,1,,B,16KJbT00019wiKlDIFH`AEgF0HJL,0*2C
[2018-05-11 03:52:08] !AIVDM,1,1,,B,16K2>3P000awhm<DI3DqK15L2@Jk,0*42
[2018-05-11 03:52:08] $GPGGA,054946.000,3540.0135,N,13947.5385,E,1,10,0.8,18.4,M,39.4,M,,0000*6A
[2018-05-11 03:52:08] !AIVDM,1,1,,B,16K2<Gh000awhPdDHtbrG8CL0HJo,0*77
[2018-05-11 03:52:08] $GPRMC,054945.000,A,3540.0135,N,13947.5385,E,0.00,172.30,140518,,,A*6F
[2018-05-11 03:52:09] $GPGGA,054947.000,3540.0135,N,13947.5385,E,1,10,0.8,18.4,M,39.4,M,,0000*6B
[2018-05-11 03:52:09] !AIVDM,1,1,,A,16K2;J@000awiPlDISN;cPMJ0<42,0*0F
[2018-05-11 03:52:09] $GPRMC,054946.000,A,3540.0135,N,13947.5385,E,0.00,172.30,140518,,,A*6C
[2018-05-11 03:52:10] !AIVDM,1,1,,B,38Infd001Jb0=:DDEe?csqOR0001,0*47
[2018-05-11 03:52:10] !AIVDM,2,1,7,B,56K2ij82E`FP`CC;?20PTl5L58V3V2222222221?5qp=>1G70A?RT856Cp0p,0*52
[2018-05-11 03:52:10] !AIVDM,2,2,7,B,88888888880,2*20
[2018-05-11 03:52:10] $GPGGA,054948.000,3540.0135,N,13947.5385,E,1,10,0.8,18.4,M,39.4,M,,0000*64
[2018-05-11 03:52:10] $GPRMC,054947.000,A,3540.0135,N,13947.5385,E,0.00,172.30,140518,,,A*6D
[2018-05-11 03:52:11] !AIVDM,1,1,,B,16K2kS@000awi9LDIIO78UoN2@LH,0*1F
[2018-05-11 03:52:11] !AIVDM,1,1,,B,16K2>>@01Hawmd0DGaIF64iR2<6h,0*79
[2018-05-11 03:52:11] !AIVDM,1,1,,B,36K8DA@001awi<VDIG1J1HaR2733,0*4C
[2018-05-11 03:52:11] $GPGGA,054949.000,3540.0135,N,13947.5385,E,1,10,0.8,18.4,M,39.4,M,,0000*65
[2018-05-11 03:52:11] !AIVDM,1,1,,A,16K2QwP000awi7DDIGJd@UWR2D5<,0*19
[2018-05-11 03:52:11] $GPRMC,054948.000,A,3540.0135,N,13947.5385,E,0.00,172.30,140518,,,A*62
[2018-05-11 03:52:12] !AIVDM,1,1,,B,16K2N?P001awhp0DHtjI1`OP0<4Q,0*09
[2018-05-11 03:52:12] !AIVDM,1,1,,B,36K2je0Oh9awljFDI<oQp2o<00e@,0*15
[2018-05-11 03:52:12] !AIVDM,1,1,,A,16K2PfP000awi;4DIJcW85gT0<59,0*33
[2018-05-11 03:52:12] $GPGGA,054950.000,3540.0135,N,13947.5385,E,1,10,0.8,18.4,M,39.4,M,,0000*6D
[2018-05-11 03:52:12] $GPRMC,054949.000,A,3540.0135,N,13947.5385,E,0.00,172.30,140518,,,A*63
[2018-05-11 03:52:13] !AIVDM,2,1,8,A,56K2kSH00000`CC;SB0tQT4l60l59F222222220l20H84t0Ht9U6Cp888888,0*5F
[2018-05-11 03:52:13] !AIVDM,2,2,8,A,88888888880,2*2C
[2018-05-11 03:52:13] $GPGGA,054951.000,3540.0135,N,13947.5385,E,1,10,0.8,18.4,M,39.4,M,,0000*6C
[2018-05-11 03:52:13] $GPRMC,054950.000,A,3540.0135,N,13947.5385,E,0.00,172.30,140518,,,A*6B
[2018-05-11 03:52:14] !AIVDM,1,1,,A,16K2je0Oh:awljTDI<pR3Bq@0<6<,0*6B
[2018-05-11 03:52:14] $GPGGA,054952.000,3540.0135,N,13947.5385,E,1,10,0.8,18.4,M,39.4,M,,0000*6F
[2018-05-11 03:52:14] !AIVDM,2,1,9,A,58II<402<qcu?HQGB2050j0`D@@4R22222222216GhA:C5FVeGRT856Cp888,0*6F
[2018-05-11 03:52:14] !AIVDM,2,2,9,A,88888888880,2*2D
[2018-05-11 03:52:14] $GPRMC,054951.000,A,3540.0135,N,13947.5385,E,0.00,172.30,140518,,,A*6A
[2018-05-11 03:52:15] !AIVDM,1,1,,B,16K2?Kh01Ob00DvDFMGm8T1b0L7o,0*27
[2018-05-11 03:52:15] !AIVDM,1,1,,A,16K2;J0000awiJ@DIQ5cmV;T04c4,0*51
[2018-05-11 03:52:15] $GPGGA,054953.000,3540.0135,N,13947.5385,E,1,10,0.8,18.4,M,39.4,M,,0000*6E
[2018-05-11 03:52:15] $GPRMC,054952.000,A,3540.0135,N,13947.5385,E,0.00,172.30,140518,,,A*69
[2018-05-11 03:52:15] !AIVDM,1,1,,B,16KPi<h0009wiLhDI7b8Oc?`0<0v,0*6E
[2018-05-11 03:52:16] $GPGGA,054954.000,3540.0135,N,13947.5385,E,1,10,0.8,18.4,M,39.4,M,,0000*69
[2018-05-11 03:52:16] !AIVDM,1,1,,B,16K2;>@000awi4LDIGJI15ad2D4W,0*74
[2018-05-11 03:52:16] $GPRMC,054953.000,A,3540.0135,N,13947.5385,E,0.00,172.30,140518,,,A*68
[2018-05-11 03:52:16] !AIVDM,1,1,,B,36K2je0Oh:awljlDI<q2@2uD015h,0*6A
[2018-05-11 03:52:17] !AIVDM,1,1,,B,36K8Dng000awhjnDI3V@v0wf05pk,0*35
[2018-05-11 03:52:17] !AIVDM,1,1,,A,16K2>n@000awt7vDHUAt`4Uf2D5b,0*71
[2018-05-11 03:52:17] $GPGGA,054955.000,3540.0135,N,13947.5385,E,1,10,0.8,18.4,M,39.4,M,,0000*68
[2018-05-11 03:52:17] !AIVDM,1,1,,A,16KJbT00019wiKlDIFH`AEgf0<0m,0*20
[2018-05-11 03:52:17] $GPRMC,054954.000,A,3540.0135,N,13947.5385,E,0.00,172.30,140518,,,A*6F
[2018-05-11 03:52:17] !AIVDM,1,1,,A,16K2<Gh000awhPhDHtbrG8Ch00Sd,0*36
[2018-05-11 03:52:18] !AIVDM,1,1,,A,16K2>3P001awhm8DI3DaD15h28Pa,0*17
[2018-05-11 03:52:18] $GPGGA,054956.000,3540.0135,N,13947.5385,E,1,10,0.8,18.4,M,39.4,M,,0000*6B
[2018-05-11 03:52:18] !AIVDM,1,1,,B,B6K2J0P00rOuM5U6El8e1jL5WP06,0*06
[2018-05-11 03:52:18] !AIVDM,1,1,,B,16K2;J@000awiPlDISN;cPOd0@Ph,0*62
[2018-05-11 03:52:18] $GPRMC,054955.000,A,3540.0135,N,13947.5385,E,0.00,172.30,140518,,,A*6E
[2018-05-11 03:52:19] !AIVDM,2,1,0,A,55Poo<02;SsW<E8CJ20PEDpN060`4d59@6222200>0L::5G7mBjT853jp4p8,0*20
[2018-05-11 03:52:19] !AIVDM,2,2,0,A,88888888880,2*24
[2018-05-11 03:52:19] $GPGGA,054957.000,3540.0135,N,13947.5385,E,1,10,0.8,18.4,M,39.4,M,,0000*6A
[2018-05-11 03:52:19] $GPRMC,054956.000,A,3540.0135,N,13947.5385,E,0.00,172.30,140518,,,A*6D
[2018-05-11 03:52:19] !AIVDM,1,1,,A,18Infd01AIb0=2TDEejsraOn0<5k,0*17
[2018-05-11 03:52:20] $GPGGA,054958.000,3540.0135,N,13947.5385,E,1,10,0.8,18.4,M,39.4,M,,0000*65
[2018-05-11 03:52:20] !AIVDM,1,1,,B,16K2PfP001awi;4DIJcW85il08Qq,0*2F
[2018-05-11 03:52:20] !AIVDM,1,1,,B,16K2QwP000awi7DDIGJct5Wl2D5<,0*77
[2018-05-11 03:52:20] !AIVDM,1,1,,A,16K2>>@PAIawmgnDG`Pn3Tgn28R8,0*61
[2018-05-11 03:52:21] !AIVDM,1,1,,A,16K8DA@001awi<PDIG1:28an2@RK,0*1A
[2018-05-11 03:52:21] !AIVDM,1,1,,B,35?Apd0PArb0B1NDCuAhM05n21;0,0*00
[2018-05-11 03:52:21] $GPGGA,054959.000,3540.0135,N,13947.5385,E,1,10,0.8,18.4,M,39.4,M,,0000*64
[2018-05-11 03:52:21] !AIVDM,1,1,,A,36K2je0OhBawllFDI<pk=31P00q@,0*24
[2018-05-11 03:52:21] $GPRMC,054958.000,A,3540.0135,N,13947.5385,E,0.00,172.30,140518,,,A*63
[2018-05-11 03:52:22] !AIVDM,1,1,,A,16K2kS@000awi9BDIIPWjEon28S0,0*10
[2018-05-11 03:52:22] $GPGGA,055000.000,3540.0135,N,13947.5385,E,1,10,0.8,18.4,M,39.4,M,,0000*60
[2018-05-11 03:52:22] !AIVDM,1,1,,A,16K2N?P001awhovDHtjI1`On0<4b,0*5E
[2018-05-11 03:52:22] !AIVDM,1,1,,A,4047581v9G5is:0IUhDHEQW004c4,0*68
[2018-05-11 03:52:22] $GPRMC,054959.000,A,3540.0135,N,13947.5385,E,0.00,172.30,140518,,,A*62
[2018-05-11 03:52:23] $GPGGA,055001.000,3540.0135,N,13947.5385,E,1,10,0.8,18.4,M,39.4,M,,0000*61
[2018-05-11 03:52:23] $GPRMC,055000.000,A,3540.0135,N,13947.5385,E,0.00,172.30,140518,,,A*66
[2018-05-11 03:52:24] !AIVDM,1,1,,B,177C78002AawnllDAnq3B2en00Rw,0*24
[2018-05-11 03:52:24] !AIVDM,1,1,,B,36K2je0OhJawlm:DI<pSNk3T00pQ,0*57
[2018-05-11 03:52:24] $GPGGA,055002.000,3540.0135,N,13947.5385,E,1,10,0.8,18.4,M,39.4,M,,0000*62
[2018-05-11 03:52:24] !AIVDM,1,1,,B,16K2;J0000awiJ@DIQ5cmV:20<2>,0*66
[2018-05-11 03:52:24] $GPRMC,055001.000,A,3540.0135,N,13947.5385,E,0.00,172.30,140518,,,A*67
[2018-05-11 03:52:24] !AIVDM,1,1,,B,14VM9n0Oh8b08wJDFNgnppj62<8T,0*6F
[2018-05-11 03:52:25] $GPGGA,055003.000,3540.0135,N,13947.5385,E,1,10,0.8,18.4,M,39.4,M,,0000*63
[2018-05-11 03:52:25] !AIVDM,1,1,,B,16K8CbhPAPb0=2VDEffcWIB624c8,0*07
[2018-05-11 03:52:25] $GPRMC,055002.000,A,3540.0135,N,13947.5385,E,0.00,172.30,140518,,,A*64
[2018-05-11 03:52:25] !AIVDM,1,1,,A,35?Apd0PApb0B2NDCujPI@2620hA,0*19
[2018-05-11 03:52:26] !AIVDM,1,1,,A,16K2;>@000awi4LDIGJHv5`82L4V,0*65
[2018-05-11 03:52:26] $GPGGA,055004.000,3540.0135,N,13947.5385,E,1,10,0.8,18.4,M,39.4,M,,0000*64
[2018-05-11 03:52:26] $GPRMC,055003.000,A,3540.0135,N,13947.5385,E,0.00,172.30,140518,,,A*65
[2018-05-11 03:52:27] $GPGGA,055005.000,3540.0135,N,13947.5385,E,1,10,0.8,18.4,M,39.4,M,,0000*65
[2018-05-11 03:52:27] !AIVDM,1,1,,B,16K2>n@000awt7pDHU@d`4T:282r,0*53
[2018-05-11 03:52:27] $GPRMC,055004.000,A,3540.0135,N,13947.5385,E,0.00,172.30,140518,,,A*62
